"","node_id","address...2","name","countries","country_codes","sourceID","origin_match","lon","lat","type","loctype","address...12","north","south","east","west"
"1",14000144,"3 300MS 75ME DE LA ENTRADA PRINCIPAL DE BELLO HORIZONTE ESCAZU SAN JOSE COSTA RICA",NA,"Costa Rica","CRI","Panama Papers","1_node_start",-84.1263623,9.9189595,"neighborhood","approximate","san josé, escazú, bello horizonte, costa rica",9.9226524,9.9133264,-84.1213299,-84.130827
"2",14006777,"19 CALLE 14 60 ZONA 10 GUATEMALA GUATEMALA",NA,"Guatemala","GTM","Panama Papers","1_node_start",-90.5057273,14.5891433,"subpremise","rooftop","60, 19 calle 14-60, cdad. de guatemala 01010, guatemala",14.5904829302915,14.5877849697085,-90.5043824697085,-90.5070804302915
"3",14007025,"1 AVENTURA EXECUTIVE CENTER SUITE 514 AVENTURA FLORIDA 33180 UNITED STATES",NA,"United States","USA","Panama Papers","1_node_start",-80.1528987,25.932045,"establishment","geometric_center","north miami beach, fl 33160, usa",25.9333577802915,25.9306598197085,-80.1514090197085,-80.1541069802915
"4",14007103,"1 CHEMIN ROMAIN 06320 CAP D AIL FRANCE",NA,"France","FRA","Panama Papers","1_node_start",7.3990763,43.72685,"premise","rooftop","1 chem. romain, 06320 cap-d'ail, france",43.7281483302915,43.7254503697085,7.4004129302915,7.3977149697085
"5",14007433,"1 RUE DU PRÉ DE LA BICHETTE 1202 GENEVA SWITZERLAND",NA,"Switzerland","CHE","Panama Papers","1_node_start",6.1353318,46.2206448,"street_address","rooftop","rue du pré-de-la-bichette 1, 1202 genève, switzerland",46.2220867302915,46.2193887697085,6.1368089302915,6.1341109697085
"6",14000851,"1055/221 STATE TOWER 20TH FLOOR SILOM ROAD SILOM BANGRAK BANGKOK 10500 THAILAND",NA,"Thailand","THA","Panama Papers","1_node_start",100.5168931,13.7214837,"establishment","rooftop","1055 si lom, khwaeng silom, khet bang rak, krung thep maha nakhon 10500, thailand",13.7232324302915,13.7205344697085,100.518339880292,100.515641919709
"7",14000892,"106 140 CASA 32 CONJ RES LA CASTELLANA BARRANQUILLA COLOMBIA",NA,"Colombia","COL","Panama Papers","1_node_start",-74.8069813,11.0041072,"locality","approximate","barranquilla, atlantico, colombia",11.0463319,10.921292,-74.7585391,-74.877496
"8",14000984,"10911 NW3 PLANTATION FL USA UNITED STATES",NA,"United States","USA","Panama Papers","1_node_start",-80.2331036,26.1275862,"locality","approximate","plantation, fl, usa",26.160857,26.0924999,-80.197469,-80.3303139
"9",14001155,"10F 11 FORTUNE CENTER 51 NANHAI AVENUE GIU CHENG FO SHAN CHINA",NA,"China","CHN","Panama Papers","1_node_start",113.1975,23.0357,"political","approximate","guicheng subdistrict, foshan, nanhai district, foshan, guangdong province, china, 528251",23.0370489802915,23.0343510197085,113.198848980292,113.196151019708
"10",14001490,"11050 N KENDALL DR 106 MIAMI FLORIDA 33176 UNITED STATES",NA,"United States","USA","Panama Papers","1_node_start",-80.3751297,25.6857272,"subpremise","rooftop","11050 n kendall dr #106, miami, fl 33176, usa",25.6870074302915,25.6843094697085,-80.3737901197085,-80.3764880802915
"11",14001961,"11 CROFT LANE BREADSALL DERBY DW21 5LE UNITED KINGDOM",NA,"United Kingdom","GBR","Panama Papers","1_node_start",-1.454525,52.9531037,"premise","rooftop","11 croft ln, breadsall, derby de21 5le, uk",52.9543460802915,52.9516481197085,-1.4530667697085,-1.4557647302915
"12",14002362,"1200 FOUR SEASONS TOWER 1441 BRICKELL AVENUE MIAMI FLORIDA 33131 UNITED STATES",NA,"United States","USA","Panama Papers","1_node_start",-80.1920843,25.7589641,"establishment","rooftop","1435 brickell ave, miami, fl 33131, usa",25.7599269302915,25.7572289697085,-80.1904955697085,-80.1931935302915
"13",14002457,"1211 GENEVA SWITZERLAND",NA,"Switzerland","CHE","Panama Papers","1_node_start",6.1638785,46.2000323,"postal_code","approximate","1211 geneva, switzerland",46.2013812802915,46.1986833197085,6.1652274802915,6.1625295197085
"14",14002712,"128 SUKHUMVIT HOUSE RM 32/C SUKHUMVIT ROAD SOI 23 BANGKOK 10110 THAILAND",NA,"Thailand","THA","Panama Papers","1_node_start",100.5775673,13.7256849,"subpremise","rooftop","rm 32, 23 sukhumvit rd, khwaeng khlong tan nuea, watthana, krung thep maha nakhon 10110, thailand",13.7270249802915,13.7243270197085,100.579001130292,100.576303169708
"15",14002771,"12 AVENIDA 5 55 ZONA 1 GUATEMALA",NA,"Guatemala","GTM","Panama Papers","1_node_start",-90.5070229,14.6414066,"subpremise","rooftop","55, 12 avenida 5-66, cdad. de guatemala, guatemala",14.6427493302915,14.6400513697085,-90.5056202197085,-90.5083181802915
"16",14003413,"13791 NW 19 COURT PEMBROKE PINES FL 33028 MALTA",NA,"Malta","MLT","Panama Papers","1_node_start",-80.334649,26.0253985,"premise","rooftop","13791 nw 19th ct, pembroke pines, fl 33028, usa",26.0266742302915,26.0239762697085,-80.3333207697085,-80.3360187302915
"17",14003468,"13998 NW 20 STREET PEMBROKE PINES FL 33028 MALTA",NA,"Malta","MLT","Panama Papers","1_node_start",-80.3378216,26.0259128,"premise","rooftop","13998 nw 20th st, pembroke pines, fl 33028, usa",26.0272785802915,26.0245806197085,-80.3364696697085,-80.3391676302915
"18",14003543,"13 CALLE 2 60 ZONA 10 OFIC 702 TOPACIO AZUL GUATEMALA",NA,"Guatemala","GTM","Panama Papers","1_node_start",-90.5154546,14.599568,"subpremise","range_interpolated","60, 13 calle 2, cdad. de guatemala 01010, guatemala",14.6009169802915,14.5982190197085,-90.5141056197085,-90.5168035802915
"19",14003545,"13 CALLE 3 10 ZONA 10 CIUDAD DE GUATEMALA",NA,"Guatemala","GTM","Panama Papers","1_node_start",-90.5133174,14.599051,"subpremise","rooftop","10, 13 calle 3, cdad. de guatemala 01010, guatemala",14.6004738802915,14.5977759197085,-90.5119531197085,-90.5146510802915
"20",14004098,"14 CALLE 3 51 ZONA 10 MURANO CENTER OF 603 GUATEMALA",NA,"Guatemala","GTM","Panama Papers","1_node_start",-90.5131515,14.5981577,"subpremise","rooftop","of 603, 14 calle 3, cdad. de guatemala 01010, guatemala",14.5994921302915,14.5967941697085,-90.5117164697085,-90.5144144302915
"21",14004099,"14 CALLE 3 51 ZONA 10 MURANO CENTER OF 604 GUATEMALA",NA,"Guatemala","GTM","Panama Papers","1_node_start",-90.5131515,14.5981577,"subpremise","rooftop","of 604, 14 calle 3, cdad. de guatemala 01010, guatemala",14.5994921302915,14.5967941697085,-90.5117164697085,-90.5144144302915
"22",14004658,"15 AVE 18 28 ZONA 13 CIUDAD DE GUATEMALA GUATEMALA",NA,"Guatemala","GTM","Panama Papers","1_node_start",-90.5206873,14.5883499,"subpremise","rooftop","18 28, avenida las americas 15, cdad. de guatemala, guatemala",14.5896605802915,14.5869626197085,-90.5192972697085,-90.5219952302915
"23",14004659,"15 AVE 18 28 ZONA 13 GUATEMALA",NA,"Guatemala","GTM","Panama Papers","1_node_start",-90.5306109,14.5800523,"political","approximate","zona 13, guatemala city, guatemala",14.6066213,14.5497111,-90.5176223,-90.5410338
"24",14004661,"15 AVENIDA 14 93 ZONA 10 GUATEMALA GUATEMALA",NA,"Guatemala","GTM","Panama Papers","1_node_start",-90.5022234,14.5937737,"subpremise","rooftop","93, 15 avenida 14-09, cdad. de guatemala 01010, guatemala",14.5951452802915,14.5924473197085,-90.5008851197085,-90.5035830802915
"25",14004703,"15 CALLE 7 24 ZONA 10 CIUDAD DE GUATEMALA GUATEMALA",NA,"Guatemala","GTM","Panama Papers","1_node_start",-90.5155395,14.5970966,"subpremise","rooftop","24, 15 calle 7, cdad. de guatemala 01010, guatemala",14.5983182802915,14.5956203197085,-90.5142146197085,-90.5169125802915
"26",14004847,"15 MARIKIT CORNER MASAYA STREETS WEST TRIANGLE QUEZON CITY PHILIPPINES",NA,"Philippines","PHL","Panama Papers","1_node_start",121.0333533,14.6449791,"premise","rooftop","15 marikit, lungsod quezon, kalakhang maynila, philippines",14.6463249302915,14.6436269697085,121.034700730292,121.032002769708
"27",14005284,"16 AVENIDA “A” 4 20 ZONA 1 GUATEMALA GUATEMALA",NA,"Guatemala","GTM","Panama Papers","1_node_start",-90.5016919,14.6418004,"subpremise","rooftop","20, 16 avenida a 4-35, cdad. de guatemala, guatemala",14.6431644802915,14.6404665197085,-90.5003762197085,-90.5030741802915
"28",14005651,"17282 NW HOLCOMB DR PORTLAND OREGON 97229 UNITED STATES",NA,"United States","USA","Panama Papers","1_node_start",-122.8564258,45.5558914,"premise","rooftop","17282 nw holcomb dr, portland, or 97229, usa",45.5572942802915,45.5545963197085,-122.855069719708,-122.857767680292
"29",14005731,"177 OCEAN LANE DRIVE APT 500 KEY BISCAYNE FL 33149 UNITED STATES",NA,"United States","USA","Panama Papers","1_node_start",-80.1567251,25.7000439,"subpremise","rooftop","177 ocean ln dr apt 500, key biscayne, fl 33149, usa",25.7013142302915,25.6986162697085,-80.1555637197085,-80.1582616802915
"30",14005785,"17 AVE 10 58 Z 15 VISTA HERMOSA III GUATEMALA CITY REPUBLIC OF GUATEMALA",NA,"Guatemala","GTM","Panama Papers","1_node_start",-90.489172,14.6043526,"neighborhood","approximate","vista hermosa iii, guatemala city, guatemala",14.6093059,14.6002644,-90.4853296,-90.495281
"31",14007799,"2/B MANGGA ST LITTLE BAGUIO SAN JUAN METRO MANILA PHILIPPINES",NA,"Philippines","PHL","Panama Papers","1_node_start",121.0368564,14.6008013,"route","geometric_center","mangga, san juan, kalakhang maynila, philippines",14.6021707802915,14.5994728197085,121.038196130291,121.035498169709
"32",14007983,"2000 PONCE DE LEON BOULEVARD SUITE 625 CORAL GABLES FL 33134 USA UNITED STATES",NA,"United States","USA","Panama Papers","1_node_start",-80.2590518,25.7542806,"subpremise","rooftop","2000 ponce de leon suite 625, coral gables, fl 33134, usa",25.7556330802915,25.7529351197085,-80.2576103697085,-80.2603083302915
"33",14008019,"200 MTS NORTE Y 100 OESTE DE LA GUARDIA RURAL DE SAN ANTONIO DE ESCAZU SAN JOSE COSTA RICA",NA,"Costa Rica","CRI","Panama Papers","1_node_start",-84.0468998,9.8999547,"establishment","geometric_center","vxx3+x6q, san josé province, san antonio, costa rica",9.9013750302915,9.8986770697085,-84.0456190197085,-84.0483169802915
"34",14008296,"20 CALLE 19 52 ZONA 10 INTERIOR 01 EGYPT",NA,"Egypt","EGY","Panama Papers","1_node_start",-90.5027386,14.5888549,"political","approximate","zone 10, guatemala city 01010, guatemala",14.6153277,14.573527,-90.4822774,-90.5177791
"35",14008576,"21050 NE 38TH AVE APT 821 AVENTURA FL 33180 4075 UNITED STATES",NA,"United States","USA","Panama Papers","1_node_start",-80.1251496,25.9713002,"subpremise","rooftop","21050 ne 38th ave #821, aventura, fl 33180, usa",25.9725773802915,25.9698794197085,-80.1237639697085,-80.1264619302915
"36",14008613,"21150 NE 38TH AVENUE 1003 AVENTURA FL 33180 UNITED STATES",NA,"United States","USA","Panama Papers","1_node_start",-80.1252911,25.9722408,"subpremise","rooftop","21150 ne 38th ave apt 1003, aventura, fl 33180, usa",25.9735793802915,25.9708814197085,-80.1236369697085,-80.1263349302915
"37",14010244,"24 SLOANE COURT EAST FLAT 2 LONDON UNITED KINGDOM",NA,"United Kingdom","GBR","Panama Papers","1_node_start",-0.156532,51.4894678,"subpremise","rooftop","2, 24 sloane ct e, london sw3 4tg, uk",51.4908277302915,51.4881297697085,-0.155156519708498,-0.157854480291502
"38",14010832,"269 LENOX ST NEW HAM C T U S A UNITED STATES",NA,"United States","USA","Panama Papers","1_node_start",-71.5723953,43.1938516,"administrative_area_level_1","approximate","new hampshire, usa",45.3057777,42.697042,-70.575094,-72.557124
"39",14012109,"2 HAVEN MEWS LONDON N1 1LQ UNITED KINGDOM",NA,"United Kingdom","GBR","Panama Papers","1_node_start",-0.1054868,51.5411495,"street_address","rooftop","2 haven mews, london n1 1lq, uk",51.5423986802915,51.5397007197085,-0.104055669708498,-0.106753630291502
"40",14012477,"2 RUE DE JARGONNANT 1206 GENEVA SWITZERLAND",NA,"Switzerland","CHE","Panama Papers","1_node_start",6.1595613,46.2010438,"premise","rooftop","rue de jargonnant 2, 1207 genève, switzerland",46.2024344802915,46.1997365197085,6.1608912802915,6.1581933197085
"41",14012535,"2 SOUTH BISCAYNE BLVD 3200 MIAMI FLA 33131 UNITED STATES",NA,"United States","USA","Panama Papers","1_node_start",-80.1879712,25.7737878,"subpremise","rooftop","2 s biscayne blvd #3200, miami, fl 33131, usa",25.7752504302915,25.7725524697085,-80.1865364197085,-80.1892343802915
"42",14012742,"3ª STREET A 28 90 COLONIA SAN LAZARO ZONE 15 CONDOMINIO LA ESCALADA HOUSE NO 8 SANTA CATARINA PINULA GUATEMALA",NA,"Guatemala","GTM","Panama Papers","1_node_start",-90.4826801,14.5861548,"neighborhood","approximate","colonia san lazaro, guatemala city, guatemala",14.5899795,14.5818392,-90.4813814,-90.4855014
"43",14012779,"300 SOUTH POINTE DR UNIT 2401 MIAMI BEACH FL 33139 UNITED STATES",NA,"United States","USA","Panama Papers","1_node_start",-80.1349941,25.7677332,"subpremise","rooftop","300 south pointe dr apt 2401, miami beach, fl 33139, usa",25.7693354302915,25.7666374697085,-80.1336546197085,-80.1363525802915
"44",14013437,"32565B GOLDEN LANTERN ST 111 DANA POINT CA 92629 3248 UNITED STATES",NA,"United States","USA","Panama Papers","1_node_start",-117.6995935,33.4898712,"subpremise","rooftop","32565b golden lantern #111, dana point, ca 92629, usa",33.4912252302915,33.4885272697085,-117.698315969709,-117.701013930291
"45",14013686,"3370 MARY STREET MIAMI FL 33133 U S A UNITED STATES",NA,"United States","USA","Panama Papers","1_node_start",-80.2396464,25.7288381,"premise","rooftop","3370 mary st, miami, fl 33133, usa",25.7301663302915,25.7274683697085,-80.2382555697085,-80.2409535302915
"46",14014257,"3620 AVENIDA CORAL SPRING MIAMI FLORIDA F 133065 UNITED STATES",NA,"United States","USA","Panama Papers","1_node_start",-80.1840963,25.833272,"establishment","geometric_center","ne 62nd st &, biscayne blvd, miami, fl 33138, usa",25.8346209802915,25.8319230197085,-80.1827473197085,-80.1854452802915
"47",14014890,"3A AVENIDA 13 78 ZONA 10 TORRE CITIBANK OF 601 GUATEMALA GUATEMALA",NA,"Guatemala","GTM","Panama Papers","1_node_start",-90.5129445,14.6043456,"subpremise","range_interpolated","of 601, 3a avenida 13, cdad. de guatemala 01010, guatemala",14.6056945802915,14.6029966197085,-90.5115955197085,-90.5142934802915
"48",14015398,"3 PLACE BERGUES 1211 GENEVA 1 SWITZERLAND",NA,"Switzerland","CHE","Panama Papers","1_node_start",6.1460627,46.2069575,"subpremise","rooftop","place des bergues 1/3, 1201 genf, switzerland",46.2082660302915,46.2055680697085,6.1476039302915,6.1449059697085
"49",14015400,"3 PLACE DES BERGUES SWITZERLAND",NA,"Switzerland","CHE","Panama Papers","1_node_start",6.1464472,46.2069015,"street_address","range_interpolated","place des bergues 3, 1201 genf, switzerland",46.2082504802915,46.2055525197085,6.1477961802915,6.1450982197085
"50",14015401,"3 PLACE DES BERGUES 1201 GENEVA SWITZERLAND",NA,"Switzerland","CHE","Panama Papers","1_node_start",6.1464472,46.2069015,"street_address","range_interpolated","place des bergues 3, 1201 genf, switzerland",46.2082504802915,46.2055525197085,6.1477961802915,6.1450982197085
"51",14015402,"3 PLACE DES BERGUES 1201 GENEVE SWITZERLAND",NA,"Switzerland","CHE","Panama Papers","1_node_start",6.1464472,46.2069015,"street_address","range_interpolated","place des bergues 3, 1201 genf, switzerland",46.2082504802915,46.2055525197085,6.1477961802915,6.1450982197085
"52",14015927,"4018 WEST 16TH AVENUE VANCOUVER BC CANADA",NA,"Canada","CAN","Panama Papers","1_node_start",-123.194148,49.2577985,"street_address","rooftop","4018 w 16th ave, vancouver, bc v6s 2n1, canada",49.2592382802915,49.2565403197085,-123.192791319709,-123.195489280291
"53",14016031,"409 SW 120TH AVE FLORIDA ESTADOS UNIDOS UNITED STATES",NA,"United States","USA","Panama Papers","1_node_start",-80.3909227,25.7638292,"street_address","range_interpolated","409 sw 120th ave, miami, fl 33184, usa",25.7651781802915,25.7624802197085,-80.3895737197085,-80.3922716802915
"54",14016032,"409 SW 120TH AVE FLORIDA USA UNITED STATES",NA,"United States","USA","Panama Papers","1_node_start",-80.3909227,25.7638292,"street_address","range_interpolated","409 sw 120th ave, miami, fl 33184, usa",25.7651781802915,25.7624802197085,-80.3895737197085,-80.3922716802915
"55",14016461,"42 RUE DU DECEMBRE 1211 GENEVA SWITZERLAND",NA,"Switzerland","CHE","Panama Papers","1_node_start",6.1444845,46.1921439,"premise","rooftop","rue prévost-martin 42, 1205 genève, switzerland",46.1934981802915,46.1908002197085,6.1458845802915,6.1431866197085
"56",14016462,"42 RUE DU DECEMBRE PO BOX 6193 1211 GENEVA 6 SWITZERLAND",NA,"Switzerland","CHE","Panama Papers","1_node_start",6.1638785,46.2000323,"postal_code","approximate","1211 geneva, switzerland",46.2013812802915,46.1986833197085,6.1652274802915,6.1625295197085
"57",14017379,"4A CALLE 23 03 DE LA ZONA 14 DE LA CIUDAD DE GUATEMALA",NA,"Guatemala","GTM","Panama Papers","1_node_start",-90.5117911,14.6099048,"subpremise","rooftop","03, 4a calle 3-23, cdad. de guatemala 01010, guatemala",14.6112103802915,14.6085124197085,-90.5104403197085,-90.5131382802915
"58",14017994,"4TH FLOOR JANA BUILDING EMBASSIES ST BIR HASSAN BAABDA MOUNT LEBANON",NA,"Lebanon","LBN","Panama Papers","1_node_start",35.509468,33.8805165,"establishment","geometric_center","vgj5+6q4, beirut, lebanon",33.8818461302915,33.8791481697085,35.5108197802915,35.5081218197085
"59",14018217,"500 NORTE 100 ESTE SOBRE AV PPL LOS LAURELES ESCAZU SAN JOSE COSTA RICA",NA,"Costa Rica","CRI","Panama Papers","1_node_start",-84.1468114,9.9367001,"neighborhood","approximate","san josé province, san rafael de escazú, los laureles, costa rica",9.9426413,9.9310707,-84.1440135,-84.150321
"60",14018582,"520 BRICKELL KEY DR APT 1102 MIAMI – FLORIDA 33131 USA UNITED STATES",NA,"United States","USA","Panama Papers","1_node_start",-80.1849333,25.7671903,"subpremise","rooftop","520 brickell key dr #1102, miami, fl 33131, usa",25.7684183302915,25.7657203697085,-80.1835253197085,-80.1862232802915
"61",14019410,"5A AVENIDA 15 45 ZONA 10 CENTRO EMPRESARIAL TORRE 1 OF 608 CIUDAD GUATEMALA REPUBLICA DE GAUTEMALA",NA,"Guatemala","GTM","Panama Papers","1_node_start",-90.5123448,14.5953794,"subpremise","rooftop","torre 1, centro empresarial, 5 avenida 15-45, cdad. de guatemala 01010, guatemala",14.5966027802915,14.5939048197085,-90.5108940197085,-90.5135919802915
"62",14019411,"5A AVENIDA 18 48 ZONA 14 APARTAMENTO 7 EDIFICIO PREMIERE VIATOSCANA GUATEMALA GUATEMALA",NA,"Guatemala","GTM","Panama Papers","1_node_start",-90.5201266,14.612054,"subpremise","rooftop","apartamento 7, 5a avenida 3-18, cdad. de guatemala 01009, guatemala",14.6133922302915,14.6106942697085,-90.5187158197085,-90.5214137802915
"63",14019415,"5A AVENUE 5 55 ZONE 14 EUROPLAZA TORRE II BUILDING OFFICE 504 GUATEMALA",NA,"Guatemala","GTM","Panama Papers","1_node_start",-90.230759,15.783471,"country","approximate","guatemala",17.8157113,13.63,-88.1982001,-92.2714
"64",14019454,"5 A STREET CARRERA 35 39 MEDELLÍN ANTIOQUÍA COLOMBIA",NA,"Colombia","COL","Panama Papers","1_node_start",-75.5716457,6.1849176,"street_address","range_interpolated","cra. 35 #39, el poblado, medellín, el poblado, medellín, antioquia, colombia",6.1862132302915,6.1835152697085,-75.5702142697085,-75.5729122302915
"65",14020259,"6135 NW 167 ST E 18 MIAMI FL 33015 UNITED STATES",NA,"United States","USA","Panama Papers","1_node_start",-80.3018978,25.9256869,"subpremise","rooftop","6135 nw 167th st #18, hialeah, fl 33015, usa",25.9269637802915,25.9242658197085,-80.3005876697085,-80.3032856302915
"66",14020430,"6355NW 36 ST 401 VIRGINIA GARDENS FL 33166 UNITED STATES",NA,"United States","USA","Panama Papers","1_node_start",-80.3005918,25.807673,"subpremise","rooftop","6355 nw 36th st #401, virginia gardens, fl 33166, usa",25.8088537302915,25.8061557697085,-80.2993606697085,-80.3020586302915
"67",14020698,"67 AVENIDA SUR PASAJE 2 26 COLONIA ESCALON SAN SALVADOR EL SALVADOR",NA,"El Salvador","SLV","Panama Papers","1_node_start",-89.224777,13.6979082,"street_address","range_interpolated","67 avenida sur 26, san salvador, el salvador",13.6992571802915,13.6965592197085,-89.2234280197085,-89.2261259802915
"68",14020804,"690N BAR LA FUENTE SANTA ANA SAN JOSE COSTA RICA",NA,"Costa Rica","CRI","Panama Papers","1_node_start",-84.1820735,9.9312697,"locality","approximate","san josé province, santa ana, costa rica",9.9401084,9.9170702,-84.1709559,-84.1906392
"69",14020884,"6 AVE 7 84 ZONA 10 APTO NO 9 GUATEMALA CIUDAD GUATEMALA",NA,"Guatemala","GTM","Panama Papers","1_node_start",-90.5027386,14.5888549,"political","approximate","zone 10, guatemala city 01010, guatemala",14.6153277,14.573527,-90.4822774,-90.5177791
"70",14020885,"6 AVENIDA 7 84 ZONA 10 APTO NO 9 GUATEMALA CIUDAD",NA,"Guatemala","GTM","Panama Papers","1_node_start",-90.5122168,14.5904429,"subpremise","rooftop","no 9, 6 avenida 7-54, cdad. de guatemala 01010, guatemala",14.5917779302915,14.5890799697085,-90.5108277697085,-90.5135257302915
"71",14021353,"6TA AVENIDA 14 42 ZONA 10 VENEZUELA",NA,"Venezuela","VEN","Panama Papers","1_node_start",-90.5027386,14.5888549,"political","approximate","zone 10, guatemala city 01010, guatemala",14.6153277,14.573527,-90.4822774,-90.5177791
"72",14021831,"72 STREET 6 30 LEVEL 12 BOGOTÁ COLOMBIA",NA,"Colombia","COL","Panama Papers","1_node_start",-74.072092,4.7109886,"locality","approximate","bogotá, bogota, colombia",4.8371311,4.459464,-73.991977,-74.223637
"73",14021896,"7400 SW 141 TERRACE MIAMI FL 33158 UNITED STATES",NA,"United States","USA","Panama Papers","1_node_start",-80.3137811,25.6391682,"premise","rooftop","7400 sw 141st terrace, palmetto bay, fl 33158, usa",25.6406133802915,25.6379154197085,-80.3123735197085,-80.3150714802915
"74",14022072,"777 BRICKELL AVENUE SUITE 1110 MIAMI FL 33131 UNITED STATES",NA,"United States","USA","Panama Papers","1_node_start",-80.1898908,25.7664296,"subpremise","rooftop","777 brickell ave # 1110, miami, fl 33131, usa",25.7677128302915,25.7650148697085,-80.1887877697085,-80.1914857302915
"75",14022084,"77 CAMBRIDGE CIRCLE FORBES PARK MAKATI CITY PHILIPPINES",NA,"Philippines","PHL","Panama Papers","1_node_start",121.038584,14.551765,"street_address","rooftop","77 cambridge cir, makati, 1219 metro manila, philippines",14.5530921802915,14.5503942197085,121.039990380291,121.037292419709
"76",14022211,"79 STREET NO 8 63 6TH FLOOR BOGOTA COLOMBIA",NA,"Colombia","COL","Panama Papers","1_node_start",-74.072092,4.7109886,"locality","approximate","bogotá, bogota, colombia",4.8371311,4.459464,-73.991977,-74.223637
"77",14022259,"7 AVE 6 53 ZONE 4 EL TRIANGULO BUILDING 4TH LEVEL GUATEMALA",NA,"Guatemala","GTM","Panama Papers","1_node_start",-90.5154904,14.6186804,"subpremise","rooftop","building 4th, 7 avenida 6-99, salamá, guatemala",14.6200207302915,14.6173227697085,-90.5141726197085,-90.5168705802915
"78",14022261,"7 AVENIDA 3 90 ZONA 10 GUATEMALA GUATEMALA",NA,"Guatemala","GTM","Panama Papers","1_node_start",-90.5154928,14.6186062,"establishment","rooftop","7 avenida 3-39, cdad. de guatemala, guatemala",14.6199618802915,14.6172639197085,-90.5141755197085,-90.5168734802915
"79",14022720,"7TH STREET SOUTH NO 42 70 OF 2013 MEDELLÍN COLOMBIA",NA,"Colombia","COL","Panama Papers","1_node_start",-75.5658153,6.2476376,"locality","approximate","medellín, medellin, antioquia, colombia",6.31281,6.1755969,-75.521507,-75.640916
"80",14022895,"80 BROAD STREET MONROVIA LIBERIA",NA,"Liberia","LBR","Panama Papers","1_node_start",-10.8061018,6.3170349,"street_address","range_interpolated","80 broad street, monrovia, liberia",6.3183838802915,6.3156859197085,-10.8047528197085,-10.8074507802915
"81",14022965,"812 TABBARIS BLDG CHARLES MALEK AVENUE BEIRUT LEBANON",NA,"Lebanon","LBN","Panama Papers","1_node_start",35.5126177,33.8923037,"establishment","geometric_center","charles malek avenue 812 tabaris building - block a،, بيروت، lebanon",33.8936449802915,33.8909470197085,35.5139654302915,35.5112674697085
"82",14023418,"8AVE 7 41 RES CARALINA VILLA NUEVA ZONA 6 GUATEMALA",NA,"Guatemala","GTM","Panama Papers","1_node_start",-90.488883,14.6847812,"political","approximate","zona 6, guatemala city, guatemala",14.7012037,14.6493532,-90.4719742,-90.4977026
"83",14024588,"9 C A 9 34 JARDINES DE SAN CRISTOBAL HOUSE 56 ZONE 8 SEC A 10 SECTOR 4 MIXCO GUATEMALA",NA,"Guatemala","GTM","Panama Papers","1_node_start",-90.6,14.633333,"locality","approximate","mixco, guatemala",14.6346819802915,14.6319840197085,-90.5986510197085,-90.6013489802915
"84",14025408,"AGUERO 2237 PISO 7 APTO B BUENOS AIRES REPÚBLICA ARGENTINA",NA,"Argentina","ARG","Panama Papers","1_node_start",-58.4007126,-34.5869449,"subpremise","rooftop","agüero 2237 piso 7 apto b, c1425ehw buenos aires, argentina",-34.5855723197085,-34.5882702802915,-58.3993877197085,-58.4020856802915
"85",14025467,"AIXRIVALL SANT JULIÁ DE LORIA (PRINCIPALITY OF ANDORRA) CARRETARE DE LA PEGUERA CHALET ELS BESSETS DE DALT",NA,"Andorra","AND","Panama Papers","1_node_start",1.5119676,42.4578944,"route","geometric_center","ctra. de la peguera, ad600, andorra",42.4676308,42.4425672,1.5353893,1.4912187
"86",14025709,"AKARA BLDG 24 DE CASTRO STREET WICKHAMS CAY I ROAD TOWN TORTOLA BRITISH VIRGIN ISLANDS",NA,"British Virgin Islands","VGB","Panama Papers","1_node_start",-64.6195881,18.4234294,"premise","rooftop","24 de castro st, road town, british virgin islands",18.4247824802915,18.4220845197085,-64.6182416697085,-64.6209396302915
"87",14025972,"AKARA BUILDING 24 DE CASTRO STREET WICKHAMS CAY1 P O BOX 3136 ROAD ROAD TORTOLA BRITISH VIRGIN ISLANDS",NA,"British Virgin Islands","VGB","Panama Papers","1_node_start",-64.6195881,18.4234294,"premise","rooftop","24 de castro st, road town, british virgin islands",18.4247824802915,18.4220845197085,-64.6182416697085,-64.6209396302915
"88",14026010,"AKARA BUILDING 24 DE CASTRO STREET WICKHAMS CAY 1 ROAD TOWN TORTOLA BRITISH VIRGIN ISLANDS",NA,"British Virgin Islands","VGB","Panama Papers","1_node_start",-64.6195881,18.4234294,"premise","rooftop","24 de castro st, road town, british virgin islands",18.4247824802915,18.4220845197085,-64.6182416697085,-64.6209396302915
"89",14026068,"AKARA BUILDING 24 DE CASTRO STREET WICKHAMS CAY I ROADTOWN TORTOLA BRITISH VIRGIN ISLANDS",NA,"British Virgin Islands","VGB","Panama Papers","1_node_start",-64.6136518,18.4268947,"political","approximate","wickhams cay 2, road town, british virgin islands",18.4286828,18.4254408,-64.6113682,-64.6149193
"90",14026531,"AL JOAQUIM EUGENIO DE LIMA 881 AP 1012 CEP 01403 001 SAO PAULO SP BRAZIL",NA,"Brazil","BRA","Panama Papers","1_node_start",-46.6530458,-23.568786,"subpremise","rooftop","alameda joaquim eugênio de lima, 881 - conj. 1012 - jardim paulista, são paulo - sp, 01403-001, brazil",-23.5674646697085,-23.5701626302915,-46.6517234697085,-46.6544214302915
"91",14026728,"ALTO LAS PALMAS KILOMETRO 16 HACIENDA ARRAYANES CASA 65 ENVIGADO ANTIOQUÍA COLOMBIA",NA,"Colombia","COL","Panama Papers","1_node_start",-75.5348919,6.1614474,"establishment","rooftop","cra 7 #24a sur 15, las mercedes, envigado, antioquia, colombia",6.1628172302915,6.1601192697085,-75.5335114197085,-75.5362093802915
"92",14026733,"ALTOS DE PANAMÁ P H HORIZONETES 1 CALLE PRINCIPAL CASA NO A 24 REPUBLIC OF PANAMA",NA,"Panamá","PAN","Panama Papers","1_node_start",121.774017,12.879721,"country","approximate","philippines",19.7610407,3.6346296,130.6600275,114.583481
"93",14026780,"AM DÜRRBACH HAUS 3 6390 ENGELBERG SWITZERLAND",NA,"Switzerland","CHE","Panama Papers","1_node_start",8.4165814,46.8182568,"route","geometric_center","am dürrbach, 6390 engelberg, switzerland",46.8196662302915,46.8169682697085,8.417933,8.4151788
"94",14026860,"ANDRES AVELINO CACERES 96 B1 B DPTO 602 URB SANTA VICTORIA CHICLAYO LAMBAYEQUE PERÚ",NA,"Perú","PER","Panama Papers","1_node_start",-79.8467385,-6.7810228,"subpremise","range_interpolated","b1 b dpto, andrés avelino cáceres 96, chiclayo 14008, peru",-6.7796738197085,-6.7823717802915,-79.8453895197085,-79.8480874802915
"95",14026861,"ANDRES AVELINO CÁCERES 96 BI B DPTO 602 URB SANTA VICTORIA CHICLAYO LAMBAYEQUE PERÚ",NA,"Perú","PER","Panama Papers","1_node_start",-79.8467385,-6.7810228,"subpremise","range_interpolated","dpto 602, andrés avelino cáceres 96, chiclayo 14008, peru",-6.7796738197085,-6.7823717802915,-79.8453895197085,-79.8480874802915
"96",14026968,"APARTADO 2158 1000 SAN JOSE COSTA RICA",NA,"Costa Rica","CRI","Panama Papers","1_node_start",-84.0907246,9.9280694,"locality","approximate","san josé province, san josé, costa rica",9.9712598,9.8998315,-84.047191,-84.1794991
"97",14027987,"AQUILINO DE LA PLAZA Y CALLE 47 OCEAN BUSINESS PLAZA PISO 10 SUITE 1003 PANAMÁ REP DE PANAMÁ",NA,"Panamá","PAN","Panama Papers","1_node_start",-79.5228225,8.9769356,"establishment","geometric_center","xfgg+qvf, c. aquilino de la guardia, panamá, provincia de panamá, panama",8.9783872302915,8.9756892697085,-79.5214570697085,-79.5241550302915
"98",14028307,"A R H CARRETERA ZENETA 5 30130 BENIEL MURCIA SPAIN",NA,"Spain","ESP","Panama Papers","1_node_start",-1.0002352,38.0437932,"street_address","rooftop","ctra. zeneta, 5, 30130 beniel, murcia, spain",38.0451295802915,38.0424316197085,-0.998926319708498,-1.0016242802915
"99",14028330,"ARIAS SCHREIBER 125 LA AURORA MIRAFLORES LIMA 18 PERÚ",NA,"Perú","PER","Panama Papers","1_node_start",-77.0112478,-12.1228227,"street_address","rooftop","coronel luis arias schreiber 125, lima 15048, peru",-12.1214196197085,-12.1241175802915,-77.0098990197085,-77.0125969802915
"100",14028331,"ARIAS SCHREIBER 225 MIRAFLORES LIMA PERÚ",NA,"Perú","PER","Panama Papers","1_node_start",-77.0117234,-12.1217195,"premise","rooftop","coronel luis arias schreiber 225, miraflores 15048, peru",-12.1203590197085,-12.1230569802915,-77.0103196697085,-77.0130176302915
"101",14028368,"ARRERA 7 113 43 OFICINA 14 08 BOGOTA COLOMBIA",NA,"Colombia","COL","Panama Papers","1_node_start",-74.0343054,4.6923794,"subpremise","rooftop","cra. 7 #113-43 oficina 14 08, usaquén, bogotá, cundinamarca, colombia",4.6936491302915,4.6909511697085,-74.0327149197085,-74.0354128802915
"102",14028604,"AV 12 DE OCTUBRE N26 97 Y LINCOLN TORRE 1492 PISO 5 OFICINA 505 QUITO ECUADOR",NA,"Ecuador","ECU","Panama Papers","1_node_start",-78.4818667,-0.2025815,"establishment","geometric_center","qgw9+x76 la paz, quito 170517, ecuador",-0.201330569708498,-0.204028530291502,-78.4804615197085,-78.4831594802915
"103",14028610,"AV 15 DE ENERO 256 SAN ANTONIO MIRAFLORES LIMA PERU PERÚ",NA,"Perú","PER","Panama Papers","1_node_start",-77.0228135,-12.1274668,"premise","rooftop","av. 15 de enero 256, lima 15047, peru",-12.1260200697085,-12.1287180302915,-77.0214472697085,-77.0241452302915
"104",14028670,"AV ALVAREZ CALDERÓN 670 DPTO 703 SAN ISIDRO LIMA PERÚ",NA,"Perú","PER","Panama Papers","1_node_start",-77.0454076,-12.1041494,"subpremise","rooftop","dpto 703, av. alvarez calderón 670, san isidro 15073, peru",-12.1028710197085,-12.1055689802915,-77.0440746197085,-77.0467725802915
"105",14028673,"AV ALVEAR 1502 5TO PISO CABA ARGENTINA",NA,"Argentina","ARG","Panama Papers","1_node_start",-58.3850459,-34.5904605,"subpremise","rooftop","av. alvear 1502 5to piso, c1014aap buenos aires, argentina",-34.5890801197085,-34.5917780802915,-58.3836692697085,-58.3863672302915
"106",14028776,"AV BVAR ARTIGAS 352/602 MONTEVIDEO URUGUAY",NA,"Uruguay","URY","Panama Papers","1_node_start",-56.1615533,-34.922299,"subpremise","rooftop","602, bv. gral. artigas 352, 11300 montevideo, departamento de montevideo, uruguay",-34.9209554197085,-34.9236533802915,-56.1603522197085,-56.1630501802915
"107",14028787,"AV CAMINO REAL NO 456 TORRE REAL OFIC 802 LIMA 27 PERÚ",NA,"Perú","PER","Panama Papers","1_node_start",-77.0369491,-12.0983746,"subpremise","rooftop","oficina 802, torre central, av. camino real 456, san isidro 15036, peru",-12.0970568697085,-12.0997548302915,-77.0355382197085,-77.0382361802915
"108",14028790,"AV CANAVAL Y MOREYRA 452 PISO 15 SAN ISIDRO LIMA PERÚ",NA,"Perú","PER","Panama Papers","1_node_start",-77.0215182,-12.097435,"subpremise","rooftop","piso 15, slb office, av. canaval y moreyra 452, lima 15047, peru",-12.0960296197085,-12.0987275802915,-77.0201628197085,-77.0228607802915
"109",14028804,"AV CERROS DE CAMACHO 660 DPTO 502 – SURCO –LIMA PERÚ",NA,"Perú","PER","Panama Papers","1_node_start",-76.9633529,-12.0869093,"subpremise","rooftop","dpto 502, av. cerro de camacho 660, lima 15023, peru",-12.0855164697085,-12.0882144302915,-76.9620200197085,-76.9647179802915
"110",14028817,"AV CIRCUNVALACIÓN EL GOLF LOS INCAS 641 DPTO 302 SANTIAGO DE SURCO LIMA PERÚ",NA,"Perú","PER","Panama Papers","1_node_start",-76.9606829,-12.0801168,"subpremise","rooftop","dpto 302, av. circunvalación del golf los incas 641, santiago de surco 15023, peru",-12.0787627197085,-12.0814606802915,-76.9593803697085,-76.9620783302915
"111",14028827,"AV CONQUISTADORES 1005 SAN ISIDRO LIMA PERÚ",NA,"Perú","PER","Panama Papers","1_node_start",-77.0369489,-12.1063707,"premise","rooftop","av. los conquistadores 1005, san isidro 15073, peru",-12.1050312697085,-12.1077292302915,-77.0356461197085,-77.0383440802915
"112",14028837,"AV CORONEL PORTILLO 200 INT 901 SAN ISIDRO LIMA PERÚ",NA,"Perú","PER","Panama Papers","1_node_start",-77.0512856,-12.1006077,"subpremise","rooftop","901, av coronel pedro portillo 200, san isidro 15076, peru",-12.0992501697085,-12.1019481302915,-77.0499444697085,-77.0526424302915
"113",14028853,"AVDA CARLEMANY 115 ESCALDES ENGORDANY PRINCIPALITY OF ANDORRA",NA,"Andorra","AND","Panama Papers","1_node_start",1.5347461,42.5083445,"premise","rooftop","av. carlemany, 115, ad700 escaldes-engordany, andorra",42.5097494302915,42.5070514697085,1.5358239302915,1.5331259697085
"114",14028859,"AVDA DEL LIBERTADOR NR 77 (VICENTE LOPEZ) B AIRES NAURU",NA,"Nauru","NRU","Panama Papers","1_node_start",-58.473816,-34.5281205,"locality","approximate","vicente lópez, buenos aires province, argentina",-34.5113321,-34.5383156,-58.4594079,-58.4866219
"115",14028878,"AVDA NUESTRA SRA DOS NAVEGANTES 675",NA,NA,NA,"Panama Papers","1_node_start",NA,NA,NA,NA,NA,NA,NA,NA,NA
"116",14028900,"AVD BOLOGNESI 456 CAS 1 INT B CERCADO YANAHUARA AREQUIPA PERÚ",NA,"Perú","PER","Panama Papers","1_node_start",-71.553756,-16.3988325,"locality","approximate","yanahuara, peru",-16.3734275,-16.4090463,-71.5331893,-71.5679415
"117",14028931,"AV DE LOS SHYRIS N37 313 Y EL TELÉGRAFO EDIFICIO RUBIO PISO 4",NA,NA,NA,"Panama Papers","1_node_start",NA,NA,NA,NA,NA,NA,NA,NA,NA
"118",14028939,"AV DEL SUR 394 DPTO 302 URB CHACARILLA DEL ESTANQUE SURCO LIMA PERÚ",NA,"Perú","PER","Panama Papers","1_node_start",-76.9837563,-12.115236,"subpremise","rooftop","dpto 302, av. del sur 394, lima 15039, peru",-12.1139197197085,-12.1166176802915,-76.9824020697085,-76.9851000302915
"119",14028951,"AV DIEZ CANSECO 681 MIRAFLORES LIMA PERÚ",NA,"Perú","PER","Panama Papers","1_node_start",-77.023319,-12.1214265,"premise","rooftop","av. ernesto diez canseco 681, miraflores 15047, peru",-12.1201781197085,-12.1228760802915,-77.0219435697085,-77.0246415302915
"120",14028957,"AV DOIS 260 B02/1602 BARRA DA TIJUCA RIO DE JANEIRO RJ BRASIL CEP: 22631 004 BRAZIL",NA,"Brazil","BRA","Panama Papers","1_node_start",-43.3661069,-23.0040194,"political","approximate","barra da tijuca, rio de janeiro - state of rio de janeiro, brazil",-22.9727164,-23.0473569,-43.2846743,-43.4505923
"121",14028979,"AVE 15 127B 33 TORRE 2 APT 1204 BOGOTA COLOMBIA",NA,"Colombia","COL","Panama Papers","1_node_start",-74.072092,4.7109886,"locality","approximate","bogotá, bogota, colombia",4.8371311,4.459464,-73.991977,-74.223637
"122",14028982,"AVE 8 SUR PH PACIFIC WIND TORRE 2000 3B PUNTA PACÍFICA PANAMA PANAMÁ",NA,"Panamá","PAN","Panama Papers","1_node_start",-79.5076464,8.976834,"neighborhood","approximate","punta pacifica, panama city, panamá province, panama",8.9812087,8.9733878,-79.506147,-79.5110393
"123",14028983,"AVE 9 NORTE 12 55 CALI COLOMBIA",NA,"Colombia","COL","Panama Papers","1_node_start",-76.5354388,3.4579431,"street_address","rooftop","av. 9 nte. #12-55, granada, cali, valle del cauca, colombia",3.4592616802915,3.4565637197085,-76.5340454697085,-76.5367434302915
"124",14028990,"AVE AQUILINO DE LA GUARDIA TORRE PLAZA BANCO GENERAL PISO 15 CIUDAD DE PANAMÁ REPÚBLICA DE PANAMÁ",NA,"Panamá","PAN","Panama Papers","1_node_start",-79.5243817,8.9800385,"atm","geometric_center","c. aquilino de la guardia, panamá, provincia de panamá, panama",8.9812612802915,8.9785633197085,-79.5229784697085,-79.5256764302915
"125",14028991,"AVE AQUILINO DE LA GUARDIA Y CALLE 47 EDIFICIO OCEAN BUSINESS PLAZA PISO 15 OFICINA 7 PANAMA PANAMÁ",NA,"Panamá","PAN","Panama Papers","1_node_start",-79.5228225,8.9769356,"establishment","geometric_center","xfgg+qvf, c. aquilino de la guardia, panamá, provincia de panamá, panama",8.9783872302915,8.9756892697085,-79.5214570697085,-79.5241550302915
"126",14029008,"AVECOSTA DE ORO 1308 FRAC COSTA DE ORO 94299 VERACRUZ MEXICO",NA,"Mexico","MEX","Panama Papers","1_node_start",-96.0994288,19.1493535,"premise","rooftop","av costa de oro 1308, costa de oro, 94299 veracruz, ver., mexico",19.1507017302915,19.1480037697085,-96.0980215197085,-96.1007194802915
"127",14029016,"AVE EL MILAGRO 76 A CONJUNTO RESIDENCIAL PUERTO BANUS CASA 9 MARACAIBO 4001 VENEZUELA",NA,"Venezuela","VEN","Panama Papers","1_node_start",-71.5917969,10.6690125,"establishment","geometric_center","mc95+j74, avenida el milagro, maracaibo 4002, zulia, venezuela",10.6703545302915,10.6676565697085,-71.5903361197085,-71.5930340802915
"128",14029039,"AVE LAS AMERICAS 6 – 118 SECTOR SUR CUENCA ECUADOR",NA,"Ecuador","ECU","Panama Papers","1_node_start",-79.0050425,-2.8845625,"subpremise","rooftop","118 sector, av. de las américas 6-55, cuenca, ecuador",-2.8831774697085,-2.8858754302915,-79.0037749197085,-79.0064728802915
"129",14029059,"AVE LUIS ALBERTO DE HERRERA 4516 11700 MONTEVIDEO URUGUAY",NA,"Uruguay","URY","Panama Papers","1_node_start",-56.197147,-34.8573708,"premise","rooftop","av. luis alberto de herrera 4516, 11700 montevideo, departamento de montevideo, uruguay",-34.8560859197085,-34.8587838802915,-56.1957831697085,-56.1984811302915
"130",14029075,"AVENIDA 19 118 30 OFICINA 410 BOGOTA COLUMBIA COLOMBIA",NA,"Colombia","COL","Panama Papers","1_node_start",-74.0739086,4.6069553,"subpremise","range_interpolated","av. cdad. de lima #118 oficina 410, bogotá, colombia",4.6083042802915,4.6056063197085,-74.0725596197085,-74.0752575802915
"131",14029087,"AVENIDA 9 ENTRE CALLE 13 Y 15 BARRIO OTOYA CASA 1335 SAN JOSÉ COSTA RICA",NA,"Costa Rica","CRI","Panama Papers","1_node_start",-84.0719073,9.9378204,"neighborhood","approximate","san josé province, san josé, otoya, 10101, costa rica",9.9392567,9.9361763,-84.0702796,-84.0734978
"132",14029093,"AVENIDA ALONSO DE TORRES N40 150 JAMES COONET EDIFICIO EL HALCON PRIMER PISO DEPARTAMENTO 101 SECTOR EL BOSQUE QUITO ECUADOR",NA,"Ecuador","ECU","Panama Papers","1_node_start",-78.5145677,-0.2161634,"establishment","geometric_center","primer piso, qfmp+g5m, gral mires, quito 170401, ecuador",-0.214749969708498,-0.217447930291502,-78.5133231697085,-78.5160211302915
"133",14029130,"AVENIDA CALLE 17 NO 80A 45 BOGOTÁ COLOMBIA",NA,"Colombia","COL","Panama Papers","1_node_start",-74.133293,4.6565717,"street_address","range_interpolated","ac. 17 #80a-45, bogotá, colombia",4.6579206802915,4.6552227197085,-74.1319440197085,-74.1346419802915
"134",14029183,"AVENIDA EDUARDO RIBEIRO Nº 520 SL 1110 MANAUS AMAZONAS (AM) VENEZUELA",NA,"Venezuela","VEN","Panama Papers","1_node_start",-66.58973,6.42375,"country","approximate","venezuela",12.770409,0.5438179,-59.80378,-73.4255611
"135",14029213,"AVENIDA JOSE MARIA VARGAS VENEZUELA",NA,"Venezuela","VEN","Panama Papers","1_node_start",-69.4839625,8.9219269,"route","geometric_center","av. josé maría vargas, portuguesa, venezuela",9.0378104,8.7473929,-69.2281531,-69.7406072
"136",14029214,"AVENIDA JOSE MARIA VARGAS URBANIZACION SANTA FE NORTE TORRE DEL COLEGIO PISO 10 CARACAS VENEZUELA",NA,"Venezuela","VEN","Panama Papers","1_node_start",-66.8694586,10.4654898,"establishment","geometric_center","f48j+56v, avenida jose maria vargas, caracas 1080, distrito capital, venezuela",10.4668151802915,10.4641172197085,-66.8681215197085,-66.8708194802915
"137",14029225,"AVENIDA LAS MAGNOLIAS 150 COLONIA SAN BENITO SAN SALVADOR EL SALVADOR",NA,"El Salvador","SLV","Panama Papers","1_node_start",-89.2380178,13.693985,"street_address","range_interpolated","av. las magnolias 150, san salvador, el salvador",13.6953339802915,13.6926360197085,-89.2366688197085,-89.2393667802915
"138",14029226,"AVENIDA LAS PALMAS 135 COLONIA SAN BENITO SAN SALVADOR EL SALVADOR",NA,"El Salvador","SLV","Panama Papers","1_node_start",-89.2353177,13.6926768,"premise","rooftop","avenida las palmas 135, san salvador, el salvador",13.6941240302915,13.6914260697085,-89.2339723697085,-89.2366703302915
"139",14029274,"AVENIDA RICARDO J ALFARO EDIFICIO PLAZA VERONA LOCAL 4 CORREGIMIENTO DE BETHANIA PANAMA PANAMÁ",NA,"Panamá","PAN","Panama Papers","1_node_start",-79.5307712,8.9861093,"premise","rooftop","edificio plaza, c. enrique geenizier, panamá, provincia de panamá, panama",8.9874549302915,8.9847569697085,-79.5294074697085,-79.5321054302915
"140",14029280,"AVENIDA RIO MIXCOAC NUM 330 DEPTO 103 COL ACACIAS BENITO JUAREZ DF C P 03240 CR 03001 MEXICO",NA,"Mexico","MEX","Panama Papers","1_node_start",-99.1728827,19.3609165,"subpremise","rooftop","av. río mixcoac 330-depto 103, acacias, benito juárez, 03240 ciudad de méxico, cdmx, mexico",19.3622088802915,19.3595109197085,-99.1716100197085,-99.1743079802915
"141",14029316,"AVENIDA SOTO ENT AV VENEZUELA Y BOYACA EL ROSAL CARACAS VENEZUELA",NA,"Venezuela","VEN","Panama Papers","1_node_start",-66.8620294,10.4881234,"route","geometric_center","c. boyacá, caracas 1060, miranda, venezuela",10.4894683802915,10.4867704197085,-66.8606369,-66.8636615
"142",14029421,"AVE PASEO DEL MAR COSTA DEL ESTE EDIF CAPITAL PLAZA OFIC 902 PANAMÁ",NA,"Panamá","PAN","Panama Papers","1_node_start",-79.4754586,9.0086054,"premise","rooftop","capital plaza, panamá, provincia de panamá, panama",9.0098463302915,9.0071483697085,-79.4742555197085,-79.4769534802915
"143",14029442,"AVE REPUBLICA DE EL SALVADOR NO 1082 QUITO ECUADOR",NA,"Ecuador","ECU","Panama Papers","1_node_start",-78.4794804,-0.1785544,"premise","rooftop","edificio mansión blanca, av. república de el salvador 1082, quito 170135, ecuador",-0.177191619708498,-0.179889580291502,-78.4782191197085,-78.4809170802915
"144",14029494,"AV FRANCISCO DE MIRANDA TORRE LA PRIMERA PISO 9 OFICINA 9 C CAMPO ALEGRE CARACAS 1060 VENEZUELA C/O JUAN LAPORTA",NA,"Venezuela","VEN","Panama Papers","1_node_start",-66.8630566,10.4919429,"premise","rooftop","torre la primera, caracas 1060, miranda, venezuela",10.4931992802915,10.4905013197085,-66.8616928697085,-66.8643908302915
"145",14029535,"AV GONZALEZ SUAREZ N3446 Y FERNANDO AYARZA QUITO ECUADOR",NA,"Ecuador","ECU","Panama Papers","1_node_start",-78.4778677,-0.1949235,"route","geometric_center","av. gonzalez suarez, quito, ecuador",-0.1872129,-0.2027162,-78.4751945,-78.4815879
"146",14029570,"AV INDUSTRIAL 160 URD AURORA ATE PHILIPPINES",NA,"Philippines","PHL","Panama Papers","1_node_start",121.7692535,16.0773636,"administrative_area_level_2","approximate","aurora, philippines",16.535904,14.9959591,122.282254,121.283345
"147",14029575,"AV ISAAC ALBENIZ 203 Y EL MORLAN (SECTOR EL INCA) QUITO ECUADOR",NA,"Ecuador","ECU","Panama Papers","1_node_start",-78.4774906,-0.1519885,"street_address","range_interpolated","el morlán 203, quito 170138, ecuador",-0.150659469708498,-0.153357430291502,-78.4760456197085,-78.4787435802915
"148",14029589,"AV JAVIER PRADO OESTE 2061 PERÚ",NA,"Perú","PER","Panama Papers","1_node_start",-77.0524199,-12.0951391,"street_address","rooftop","av javier prado oeste 2061, san isidro 15076, peru",-12.0937396697085,-12.0964376302915,-77.0510778697085,-77.0537758302915
"149",14029602,"AV JOSÉ PARDO 1194 1001 MIRAFLORES LIMA PERÚ",NA,"Perú","PER","Panama Papers","1_node_start",-77.0410114,-12.1188273,"subpremise","rooftop","1001, av. josé pardo 1194, miraflores 15074, peru",-12.1175284197085,-12.1202263802915,-77.0396636197085,-77.0423615802915
"150",14029629,"AV LA MAR 1248 PISO 3 LIMA 18 PERÚ",NA,"Perú","PER","Panama Papers","1_node_start",-77.0405922,-12.1183069,"subpremise","rooftop","1248 piso 3, av. mariscal la mar 18, miraflores 15074, peru",-12.1169640697085,-12.1196620302915,-77.0392486697085,-77.0419466302915
"151",14029661,"AV LOS CORTIJOS RES PREMIER ESMERALDA APT 1 E CAMPO ALEGRE CARACAS VENEZUELA",NA,"Venezuela","VEN","Panama Papers","1_node_start",-66.864465,10.493708,"establishment","geometric_center","f4vp+f6m, c. el parque, caracas 1060, miranda, venezuela",10.4951800802915,10.4924821197085,-66.8630309697085,-66.8657289302915
"152",14029696,"AV MANUELA SAENZ 650 FRANCISCO HERNANDEZ DE GIRÓN QUITO ECUADOR",NA,"Ecuador","ECU","Panama Papers","1_node_start",-78.4958209,-0.1796561,"street_address","range_interpolated","hernandez de giron 650, quito 170521, ecuador",-0.178307119708498,-0.181005080291502,-78.4944719197085,-78.4971698802915
"153",14029714,"AV MIGUEL H ALCIVAR EDIFICIO TORRES DEL NORTE TORRE A PISO 8 OFICINA 810",NA,NA,"ECU","Panama Papers","1_node_start",-79.8957426,-2.1594806,"premise","rooftop","torres del norte, av. 9, guayaquil 090512, ecuador",-2.1580160697085,-2.1607140302915,-79.8945162197085,-79.8972141802915
"154",14029784,"AV PEDRO MENÉNDEZ GILBERT URBANIZACIÓN RIO GUAYAS CLUB CALLE 4TA CASA 6 GUAYAQUIL ECUADOR",NA,"Ecuador","ECU","Panama Papers","1_node_start",-79.8779834,-2.164277,"premise","geometric_center","urb. rio guayas, guayaquil 090513, ecuador",-2.1629344,-2.166794,-79.8767745,-79.8799825
"155",14029787,"AV PEDRO VICENTE MALDONADO S50 178 LA PERLA ECUADOR",NA,"Ecuador","ECU","Panama Papers","1_node_start",-78.5504502,-0.3292292,"route","geometric_center","av. pedro vicente maldonado, quito, ecuador",-0.326898999999975,-0.331882300000025,-78.5491454197085,-78.5518433802915
"156",14029791,"AV PETIT THOUARS 4541 MIRAFLORES LIMA PERU PERÚ",NA,"Perú","PER","Panama Papers","1_node_start",-77.0295962,-12.1078992,"street_address","rooftop","av. petit thouars 4541, miraflores 15046, peru",-12.1065561697085,-12.1092541302915,-77.0282844697085,-77.0309824302915
"157",14029793,"AV PETIT THOUARS NO 1175 LIMA LIMA PERÚ",NA,"Perú","PER","Panama Papers","1_node_start",-77.0344578,-12.0760691,"street_address","rooftop","av. petit thouars 1175, lima 15046, peru",-12.0747290697085,-12.0774270302915,-77.0331709197085,-77.0358688802915
"158",14029825,"AV PRINCIPAL DE PLAYA GRANDE EDIF LOS DELFINES D1 PISO1 APT D11 1URB PLAYA GRANDE CATIA LA MAR LAOS",NA,"Laos","LAO","Panama Papers","1_node_start",-67.0151832,10.6091852,"political","approximate","playa grande, maiquetía 1162, vargas, venezuela",10.6127703,10.6054366,-67.007182,-67.0204891
"159",14029828,"AV QUITO 1243 Y CLEMENTE BALLÉN PISO 2 OFICINA 204 ECUADOR GUAYAQUIL",NA,"Ecuador","ECU","Panama Papers","1_node_start",-79.8896555,-2.1929467,"subpremise","range_interpolated","piso 2 oficina 204, clemente ballén 1243, guayaquil 090312, ecuador",-2.1915977197085,-2.1942956802915,-79.8883065197085,-79.8910044802915
"160",14029836,"AV REMIGIO CRESPO TORAL 3 52 ECUADOR",NA,"Ecuador","ECU","Panama Papers","1_node_start",-79.0119473,-2.9053307,"subpremise","rooftop","52, ave remigio crespo toral 3-11, cuenca, ecuador",-2.9039640197085,-2.9066619802915,-79.0105960197085,-79.0132939802915
"161",14029849,"AV R GAMARRA NO1238 ZONA ALTO OBRAJES MESETA DE ACHUMANI LA PAZ BOLIVIA",NA,"Bolivia","BOL","Panama Papers","1_node_start",-68.1070719,-16.5203238,"route","geometric_center","raul gamarra, la paz, bolivia",-16.5189652697085,-16.5216632302915,-68.1042956,-68.1099781
"162",14029850,"AV RIO AMAZONAS 4700 N39 14 PB N39CVICENTE CARDENAS IÑAQUITO ECUADOR",NA,"Ecuador","ECU","Panama Papers","1_node_start",-78.4798596,-0.1702058,"political","approximate","iñaquito, quito, ecuador",-0.1615096,-0.1772311,-78.4751064,-78.4882139
"163",14029851,"AV RÍO AMAZONAS 4700 N39 14 PB VICENTE CÁRDENAS IÑAQUITO QUITO ECUADOR",NA,"Ecuador","ECU","Panama Papers","1_node_start",-78.4827903,-0.1702901,"route","geometric_center","vicente cárdenas, 170135 quito, ecuador",-0.168815269708498,-0.171513230291502,-78.4819481197085,-78.4846460802915
"164",14029852,"AV RIO BRANCO 18 5TH FLOOR RIO DE JANEIRO BRAZIL",NA,"Brazil","BRA","Panama Papers","1_node_start",-43.1803516,-22.8985518,"subpremise","rooftop","av. rio branco, 18 - 5th floor - centro, rio de janeiro - rj, 20090-000, brazil",-22.8971871197085,-22.8998850802915,-43.1789592697085,-43.1816572302915
"165",14029877,"AV SANTA ELENA NORTE 155 DPTO 501 SANTIAGO DE SURCO LIMA PERÚ",NA,"Perú","PER","Panama Papers","1_node_start",-76.9683791,-12.1054864,"subpremise","rooftop","dpto 501, calle sta elena nte 155, santiago de surco 15023, peru",-12.1041557197085,-12.1068536802915,-76.9669524697085,-76.9696504302915
"166",14029897,"AV SHIRYS N36 208 Y NACIONES UNIDAS EDIFICIO SHIRYS PARK OFICINA 507 CIUDAD DE QUITO ECUADOR",NA,"Ecuador","ECU","Panama Papers","1_node_start",-78.4894237,-0.1749014,"subpremise","rooftop","n36, av. naciones unidas 208, quito 170521, ecuador",-0.173608119708498,-0.176306080291502,-78.4880681197085,-78.4907660802915
"167",14029936,"AV VÍCTOR ANDRÉS BELAÚNDE 280 PISO 3 SAN ISIDRO LIMA PERÚ",NA,"Perú","PER","Panama Papers","1_node_start",-77.0379222,-12.0957133,"subpremise","rooftop","piso 3, av. víctor a. belaúnde 280, san isidro 15073, peru",-12.0944303197085,-12.0971282802915,-77.0365927197085,-77.0392906802915
"168",14029976,"AZUCENAS N44 214 Y GRANADOS EDF AZUCENAS SUITES DEP 1C QUITO ECUADOR",NA,"Ecuador","ECU","Panama Papers","1_node_start",-78.4634277,-0.1611937,"establishment","rooftop","de las azucenas 44-214, quito 170503, ecuador",-0.159857969708498,-0.162555930291502,-78.4621399697085,-78.4648379302915
"169",14030309,"BALTAZAR BRUM 590 COLONIA DEL SACRAMENTO COLONIA URUGUAY",NA,"Uruguay","URY","Panama Papers","1_node_start",-57.8421483,-34.463029,"premise","rooftop","avda. baltasar brum 590, 70000 col. del sacramento, departamento de colonia, uruguay",-34.4616590197085,-34.4643569802915,-57.8408237197085,-57.8435216802915
"170",14030310,"BALTAZAR BRUM 590 – COLONIA DEL SACRAMENTO DEPARTAMENTO DE COLONIA URUGUAY",NA,"Uruguay","URY","Panama Papers","1_node_start",-57.8421483,-34.463029,"premise","rooftop","avda. baltasar brum 590, 70000 col. del sacramento, departamento de colonia, uruguay",-34.4616590197085,-34.4643569802915,-57.8408237197085,-57.8435216802915
"171",14030380,"BARBOSA LAW OFFICE 2000 PONCE DE LEON BLVD SUITE 625 CORAL GABLES FL 33134 UNITED STATES",NA,"United States","USA","Panama Papers","1_node_start",-80.2590518,25.7542806,"subpremise","rooftop","2000 ponce de leon suite 625, coral gables, fl 33134, usa",25.7556330802915,25.7529351197085,-80.2576103697085,-80.2603083302915
"172",14030454,"BATLLE Y ORDOÑEZ 825 LAS PIEDRAS CANELONES URUGUAY",NA,"Uruguay","URY","Panama Papers","1_node_start",-56.2232869,-34.7264539,"street_address","range_interpolated","batlle y ordóñez 825, 90200 las piedras, departamento de canelones, uruguay",-34.7250248197085,-34.7277227802915,-56.2219420197085,-56.2246399802915
"173",14030686,"BELLA VISTA STA ANA 0 54 ESTE OBARRIO 107 P H GALERIA UNO PANAMA REPUBLIC OF PANAMA PANAMÁ",NA,"Panamá","PAN","Panama Papers","1_node_start",-79.5204075,8.9831691,"establishment","rooftop","galeria uno, c. 54 este, panamá, provincia de panamá, panama",8.9845381802915,8.9818402197085,-79.5190260197085,-79.5217239802915
"174",14030923,"BLANCO ENCALADA 5058 BUENOS AIRES ARGENTINA",NA,"Argentina","ARG","Panama Papers","1_node_start",-58.4859723,-34.5755988,"premise","rooftop","blanco encalada 5058, buenos aires, argentina",-34.5742167697085,-34.5769147302915,-58.4846993197085,-58.4873972802915
"175",14030962,"BLDG Nº 3 32 32ND EAST STREET JUSTO AROSEMENA AVENUE PANAMA CITY REPUBLIC OF PANAMA PANAMÁ",NA,"Panamá","PAN","Panama Papers","1_node_start",-79.5345518,8.9696342,"route","geometric_center","av. justo arosemena, panamá, provincia de panamá, panama",8.9795775,8.9606786,-79.5308152,-79.5410251
"176",14031477,"BOGOTA COLOMBIA",NA,"Colombia","COL","Panama Papers","1_node_start",-74.072092,4.7109886,"locality","approximate","bogotá, bogota, colombia",4.8371311,4.459464,-73.991977,-74.223637
"177",14031480,"BOGOTÁ REPÚBLICA DE COLOMBIA",NA,"Colombia","COL","Panama Papers","1_node_start",-74.072092,4.7109886,"locality","approximate","bogotá, bogota, colombia",4.8371311,4.459464,-73.991977,-74.223637
"178",14031581,"BORRERO E1717 Y ABEL GILBERT QUITO ECUADOR",NA,"Ecuador","ECU","Panama Papers","1_node_start",-78.4732117,-0.2648304,"route","geometric_center","abel gilbert, 170812 quito, ecuador",-0.263529469708498,-0.266227430291502,-78.4718932197085,-78.4745911802915
"179",14031588,"BOSMEDIANO E15 11 Y AUGUSTO EGAS QUITO ECUADOR",NA,"Ecuador","ECU","Panama Papers","1_node_start",-78.4747569,-0.1897291,"subpremise","range_interpolated","e15, augusto egas 11, quito 170135, ecuador",-0.188380119708498,-0.191078080291502,-78.4734079197085,-78.4761058802915
"180",14031604,"BO TOURNON DEL CC EL PUEBLO 175 METROS AL NORTE SAN JOSE COSTA RICA 5600",NA,"Costa Rica","CRI","Panama Papers","1_node_start",-84.0907246,9.9280694,"locality","approximate","san josé province, san josé, costa rica",9.9712598,9.8998315,-84.047191,-84.1794991
"181",14032039,"BULEVAR ESPAÑA 2630 APTO 301 MONTEVIDEO URUGUAY",NA,"Uruguay","URY","Panama Papers","1_node_start",-56.1572359,-34.9131528,"subpremise","rooftop","apto 301, bv. españa 2630, 11300 montevideo, departamento de montevideo, uruguay",-34.9118056697085,-34.9145036302915,-56.1559012697085,-56.1585992302915
"182",14032125,"B VICTORIA 2284 (1427)BUENOS AIRES ARGENTINA",NA,"Argentina","ARG","Panama Papers","1_node_start",-58.4472608,-34.5871335,"postal_code","approximate","c1427 buenos aires, argentina",-34.5818125,-34.5876904,-58.4458737,-58.4629998
"183",14032162,"C/ ANTONIO MAURA 16 5TA IZQ 28014 MADRID ESPAÑA SPAIN",NA,"Spain","ESP","Panama Papers","1_node_start",-3.6900408,40.4163456,"subpremise","rooftop","c. de antonio maura, 16, 5ta, retiro, 28014 madrid, spain",40.4178123302915,40.4151143697085,-3.6887050197085,-3.6914029802915
"184",14032483,"C/O AUDINA TREUHAND AG LANDSTRASS 97 FL 9494 SCHAAN FURSTENTUM LIECHTENSTEIN",NA,"Liechtenstein","LIE","Panama Papers","1_node_start",9.5152337,47.1448997,"establishment","rooftop","landstrasse 37, 9490 vaduz, liechtenstein",47.1462778802915,47.1435799197085,9.5166258302915,9.5139278697085
"185",14033556,"C/POSEIDON NO 2 LOS ALJIBES C P 11407 JEREZ DE LA FRONTERA CADIZ SPAIN",NA,"Spain","ESP","Panama Papers","1_node_start",-6.1333218,36.7002977,"street_address","rooftop","c. poseidón, 2, 11407 jerez de la frontera, cádiz, spain",36.7016934302915,36.6989954697085,-6.1319533697085,-6.1346513302915
"186",14033708,"CALE TOQUEPALA 259 URB TAMBO DE MONTERRICO SANTIAGO DE SURCO LIMA PERÚ",NA,"Perú","PER","Panama Papers","1_node_start",-76.9911594,-12.1165849,"establishment","rooftop","ca. toquepala 162, santiago de surco 15019, peru",-12.1152672697085,-12.1179652302915,-76.9898598697085,-76.9925578302915
"187",14033716,"CALLAO AVENUE 1355 3RD FLOOR DEPARTMENT B BUENOS AIRES RECOLETA CAPITAL FEDERAL 1023 ARGENTINA",NA,"Argentina","ARG","Panama Papers","1_node_start",-58.3928345,-34.5933329,"subpremise","rooftop","av. callao 1355 3rd floor department b, c1023aag buenos aires, argentina",-34.5919719197085,-34.5946698802915,-58.3915566697085,-58.3942546302915
"188",14033722,"CALLE 102 A 47A 09 BOGOTÁ COLOMBIA",NA,"Colombia","COL","Panama Papers","1_node_start",-74.0602526,4.6895529,"subpremise","rooftop","cl. 102a #47a 09, bogotá, colombia",4.6909689302915,4.6882709697085,-74.0588890197085,-74.0615869802915
"189",14033729,"CALLE 109 A NO 18 51 BOGOTÁ COLOMBIA",NA,"Colombia","COL","Panama Papers","1_node_start",-74.0491099,4.6950508,"street_address","range_interpolated","cl. 109a #18-51, bogotá, colombia",4.6964751802915,4.6937772197085,-74.0477270697085,-74.0504250302915
"190",14033733,"CALLE 113 NO 7 21 TORRE A OFICINA 901 BOGOTA COLOMBIA",NA,"Colombia","COL","Panama Papers","1_node_start",-74.0347537,4.691371,"subpremise","rooftop","cl. 113 #7-21 torre a oficina 901, usaquén, bogotá, colombia",4.6928388302915,4.6901408697085,-74.0334081197085,-74.0361060802915
"191",14033736,"CALLE 11B 40A 90 INT 107 MEDELLIN COLOMBIA",NA,"Colombia","COL","Panama Papers","1_node_start",-75.5682002,6.2119913,"subpremise","range_interpolated","cl. 11b #40a-90 107, el poblado, medellín, el poblado, medellín, antioquia, colombia",6.2133402802915,6.2106423197085,-75.5668512197085,-75.5695491802915
"192",14033739,"CALLE 11 SUR CR 50 50 MEDELLIN COLOMBIA",NA,"Colombia","COL","Panama Papers","1_node_start",-75.5770107,6.1951128,"route","geometric_center","cl. 11 sur, medellín, antioquia, colombia",6.2000526,6.1876416,-75.56224,-75.5917092
"193",14033740,"CALLE 11 SUR NO 50 50 DE MEDELLÍN COLOMBIA",NA,"Colombia","COL","Panama Papers","1_node_start",-75.5816822,6.1974178,"premise","rooftop","cl. 11 sur #50 - 50, guayabal, medellín, guayabal, medellín, antioquia, colombia",6.1987186302915,6.1960206697085,-75.5801940197085,-75.5828919802915
"194",14033744,"CALLE 121 NO 3A 20 APT 211 DE LA CIUDAD DE BOGOTÁ COLOMBIA",NA,"Colombia","COL","Panama Papers","1_node_start",-74.0384413,4.6998828,"route","geometric_center","cl. 121, usaquén, bogotá, colombia",4.7010198,4.6964927,-74.0270745,-74.0491065
"195",14033747,"CALLE 125 60 72 BOGOTÁ COLOMBIA",NA,"Colombia","COL","Panama Papers","1_node_start",-74.0725319,4.709012,"street_address","range_interpolated","cl. 125 #60-72, bogotá, colombia",4.7102621302915,4.7075641697085,-74.0711846697085,-74.0738826302915
"196",14033748,"CALLE 125 NO 11B 94 APTO 403 BOGOTÁ COLOMBIA",NA,"Colombia","COL","Panama Papers","1_node_start",-74.0360727,4.7029767,"subpremise","range_interpolated","cl. 125 #11b-94 apto 403, bogotá, colombia",4.7041825302915,4.7014845697085,-74.0347621697085,-74.0374601302915
"197",14033752,"CALLE 129 NO 7 23 APTO 703 BARRIO BELLA SUIZA BOGOTÁ COLOMBIA",NA,"Colombia","COL","Panama Papers","1_node_start",-74.0291172,4.7076308,"subpremise","rooftop","cl. 129 #7-23 apto 703, bogotá, colombia",4.7089960302915,4.7062980697085,-74.0277517197085,-74.0304496802915
"198",14033758,"CALLE 134 NO 6B 16 ( 202 ) BOGOTA DC – COLOMBIA",NA,"Colombia","COL","Panama Papers","1_node_start",-74.0274714,4.7114626,"subpremise","range_interpolated","cl. 134 #6b-16 202, bogotá, colombia",4.7128115802915,4.7101136197085,-74.0261224197085,-74.0288203802915
"199",14033760,"CALLE 136 BIS NO 140B – 08 BOGOTÁ COLOMBIA",NA,"Colombia","COL","Panama Papers","1_node_start",-74.1085033,4.7430296,"route","geometric_center","cl. 136 bis, suba, bogotá, colombia",4.7442752,4.7356219,-74.0872892,-74.1258311
"200",14033764,"CALLE 13 DE CALACOTO NO 170 LA PAZ BOLIVIA",NA,"Bolivia","BOL","Panama Papers","1_node_start",-68.0848684,-16.5449101,"route","geometric_center","c. 13 de calacoto, la paz, bolivia",-16.5434473697085,-16.5461453302915,-68.0835238697085,-68.0862218302915
"201",14033765,"CALLE 14 40A 267 APTO 311 MEDELLÍN COLOMBIA",NA,"Colombia","COL","Panama Papers","1_node_start",-75.5658153,6.2476376,"locality","approximate","medellín, medellin, antioquia, colombia",6.31281,6.1755969,-75.521507,-75.640916
"202",14033781,"CALLE 17 RIO ABAJO PANAMA REPUBLIC OF PANAMA PANAMÁ",NA,"Panamá","PAN","Panama Papers","1_node_start",-79.4906082,9.0236342,"route","geometric_center","calle 17, panamá, provincia de panamá, panama",9.0247132,9.0217631,-79.4893709,-79.4939401
"203",14033784,"CALLE 18A SVR N°38 350 BUILDING N°1 APT 601 CONDADO DE MARACAY MEDELIN COLOMBIA",NA,"Colombia","COL","Panama Papers","1_node_start",-75.5763848,6.1841401,"establishment","rooftop","cl. 18a sur #38-350, el poblado, medellín, el poblado, medellín, antioquia, colombia",6.1854569802915,6.1827590197085,-75.5750631697085,-75.5777611302915
"204",14033786,"CALLE 18 SUR C 43A 50 PISO 4 CENTRO CCIAL SAO PAULO MEDELLIN COLOMBIA",NA,"Colombia","COL","Panama Papers","1_node_start",-75.5658153,6.2476376,"locality","approximate","medellín, medellin, antioquia, colombia",6.31281,6.1755969,-75.521507,-75.640916
"205",14033791,"CALLE 1 ENTRE 9 Y 10 CASA NO 1 33 URB COLINAS DE SANTA ROSA BARQUISIMETO VENEZUELA",NA,"Venezuela","VEN","Panama Papers","1_node_start",-69.2743436,10.0669995,"political","approximate","urbanizacion colinas de santa rosa, barquisimeto 3001, lara, venezuela",10.0721569,10.0607322,-69.2680371,-69.278208
"206",14033795,"CALLE 214 93 00 CASA 50 BOGOTA COLOMBIA",NA,"Colombia","COL","Panama Papers","1_node_start",-74.072092,4.7109886,"locality","approximate","bogotá, bogota, colombia",4.8371311,4.459464,-73.991977,-74.223637
"207",14033799,"CALLE 22 A NO 118 60 CALI VALLE COLOMBIA",NA,"Colombia","COL","Panama Papers","1_node_start",-76.5274396,3.3503062,"premise","rooftop","cl. 22a #118-60, barrio pance, cali, valle del cauca, colombia",3.3516221802915,3.3489242197085,-76.5259158197085,-76.5286137802915
"208",14033809,"CALLE 25 NO 68 70 INT 1 APTO 501 BOGOTA COLOMBIA",NA,"Colombia","COL","Panama Papers","1_node_start",-74.0434527,4.7612495,"establishment","geometric_center","usaquén, bogotá, bogota, colombia",4.7626758802915,4.7599779197085,-74.0420918697085,-74.0447898302915
"209",14033827,"CALLE 31 NO 42A 61 MEDELLIN ANTIOQUIA COLOMBIA",NA,"Colombia","COL","Panama Papers","1_node_start",-75.5658153,6.2476376,"locality","approximate","medellín, medellin, antioquia, colombia",6.31281,6.1755969,-75.521507,-75.640916
"210",14033834,"CALLE 36D SUR 27 160 CASA 083 MEDELLIN COLOMBIA",NA,"Colombia","COL","Panama Papers","1_node_start",-75.5714043,6.1630841,"subpremise","rooftop","cl. 36d sur #27 - 160 casa 083, ibiza, medellín, envigado, antioquia, colombia",6.1644049302915,6.1617069697085,-75.5700542697085,-75.5727522302915
"211",14033847,"CALLE 3S 43 A 52 OF 1004 MEDELLIN COLOMBIA",NA,"Colombia","COL","Panama Papers","1_node_start",-75.5728002,6.2014165,"subpremise","rooftop","cl. 3 sur #43a-52 of 1004, el poblado, medellín, el poblado, medellín, antioquia, colombia",6.2025251302915,6.1998271697085,-75.5713914197085,-75.5740893802915
"212",14033853,"CALLE 44 A 74 58 PISO 3 MEDELLIN ANTIOQUIA COLOMBIA",NA,"Colombia","COL","Panama Papers","1_node_start",-75.5940077,6.250649,"subpremise","rooftop","cl 44a #74-58 piso 3, laureles - estadio, medellín, laureles, medellín, antioquia, colombia",6.2519306302915,6.2492326697085,-75.5926639197085,-75.5953618802915
"213",14033863,"CALLE 49A NO 64C 52 APTO 601 MEDELLIN COLOMBIA",NA,"Colombia","COL","Panama Papers","1_node_start",-75.5812774,6.2549911,"subpremise","range_interpolated","cl. 49a #64c-52 apto 601, laureles - estadio, medellín, laureles, medellín, antioquia, colombia",6.2563400802915,6.2536421197085,-75.5799284197085,-75.5826263802915
"214",14033865,"CALLE 4A SUR 37 60 AP 903 MEDELLIN ANTIOQUIA COLOMBIA",NA,"Colombia","COL","Panama Papers","1_node_start",-75.5689939,6.1981961,"subpremise","rooftop","cl. 4a sur #37-60 ap 903, el poblado, medellín, el poblado, medellín, antioquia, colombia",6.1995048302915,6.1968068697085,-75.5677759697085,-75.5704739302915
"215",14033867,"CALLE 4 SUR 38 121 MEDELLIN COLOMBIA",NA,"Colombia","COL","Panama Papers","1_node_start",-75.5719046,6.1994858,"premise","rooftop","cl. 4 sur #38-83, el poblado, medellín, el poblado, medellín, antioquia, colombia",6.2010084802915,6.1983105197085,-75.5704947697085,-75.5731927302915
"216",14033877,"CALLE 50 EDIFICIO PLAZA 2000 PISO 11 CIUDAD DE PANAMÁ REPÚBLICA DE PANAMÁ",NA,"Panamá","PAN","Panama Papers","1_node_start",-79.5206041,8.9814156,"premise","rooftop","plaza 2000, c. 50, panamá, provincia de panamá, panama",8.9829152302915,8.9802172697085,-79.5193040197085,-79.5220019802915
"217",14033911,"CALLE 50 Y 74 SAN FRANCISCO EDIFICIO P H 909 PISO 14 CIUDAD DE PANAMÁ",NA,"Panamá","PAN","Panama Papers","1_node_start",-79.5069436,8.9924711,"administrative_area_level_3","approximate","san francisco, panamá, panama city, panamá province, panama",9.008616,8.9694811,-79.4940341,-79.5196008
"218",14033912,"CALLE 50 Y 74 SAN FRANCISCO EDIFICIO P H 909 PISO 14 CIUDAD DE PANAMÁ REPÚBLICA DE PANAMÁ",NA,"Panamá","PAN","Panama Papers","1_node_start",-79.5069436,8.9924711,"administrative_area_level_3","approximate","san francisco, panamá, panama city, panamá province, panama",9.008616,8.9694811,-79.4940341,-79.5196008
"219",14033928,"CALLE 52 Y ELVIRA MENDEZ EDIFICIO VALLARINO PISO 5 LOCAL 2",NA,NA,"PAN","Panama Papers","1_node_start",-79.5247953,8.9814433,"premise","rooftop","edificio vallarino, c. elvira méndez, panama city, panamá province, panama",8.9827757802915,8.9800778197085,-79.5234660197085,-79.5261639802915
"220",14033929,"CALLE 53 A ESTE (WINSTON CHURCHILL) PH VIZCAYA APARTAMENTO 12B PUNTA PAITILLA CIUDAD DE PANAMÁ REP DE PANAMA",NA,"Panamá","PAN","Panama Papers","1_node_start",-79.5149161,8.9749781,"premise","rooftop","ph vizcaya, c. 53a este, panamá, provincia de panamá, panama",8.9763100802915,8.9736121197085,-79.5135774197085,-79.5162753802915
"221",14033973,"CALLE 55 77 100 APTO 407 MEDELLIN COLOMBIA",NA,"Colombia","COL","Panama Papers","1_node_start",-75.591641,6.2679551,"subpremise","rooftop","cl. 55 #77c8 apto 407, laureles - estadio, medellín, laureles, medellín, antioquia, colombia",6.2692953302915,6.2665973697085,-75.5902927197085,-75.5929906802915
"222",14033984,"CALLE 5 A Nº 35 107 (1601) POBLADO COLOMBIA",NA,"Colombia","COL","Panama Papers","1_node_start",-75.5683572,6.2032172,"subpremise","rooftop","cl. 5a #35-107 1601, el poblado, medellín, el poblado, medellín, antioquia, colombia",6.2049495302915,6.2022515697085,-75.5668087197085,-75.5695066802915
"223",14033998,"CALLE 67 NO 4 21 BOGOTÁ COLOMBIA",NA,"Colombia","COL","Panama Papers","1_node_start",-74.0555351,4.6492307,"street_address","rooftop","cl. 67 #4-21, bogotá, colombia",4.6506599802915,4.6479620197085,-74.0541323197085,-74.0568302802915
"224",14033999,"CALLE 67 NO 4 21 BOGOTÁ COLOMBIA",NA,"Colombia","COL","Panama Papers","1_node_start",-74.0555351,4.6492307,"street_address","rooftop","cl. 67 #4-21, bogotá, colombia",4.6506599802915,4.6479620197085,-74.0541323197085,-74.0568302802915
"225",14034025,"CALLE 75 B SUR 40 275 SABANETA ANTIOQUIA COLOMBIA",NA,"Colombia","COL","Panama Papers","1_node_start",-75.6178864,6.1475128,"street_address","range_interpolated","cl. 75b sur #40-275, sabaneta, antioquia, colombia",6.1489100302915,6.1462120697085,-75.6164689197085,-75.6191668802915
"226",14034033,"CALLE 78 ESTE SAN FRANCISCO RESIDENCIA COCO MAR TORRE 100 PISO 15 APTO 15 A UNITED STATES",NA,"United States","USA","Panama Papers","1_node_start",-79.5069436,8.9924711,"administrative_area_level_3","approximate","san francisco, panamá, panama city, panamá province, panama",9.008616,8.9694811,-79.4940341,-79.5196008
"227",14034034,"CALLE 78 NO 57 95 BARRANQUILLA COLOMBIA",NA,"Colombia","COL","Panama Papers","1_node_start",-74.8053,11.0073785,"street_address","rooftop","cl. 78 #57-95, nte. centro historico, barranquilla, atlántico, colombia",11.0086686302915,11.0059706697085,-74.8038746197085,-74.8065725802915
"228",14034038,"CALLE 79B 42 440 BARRANQUILLA COLOMBIA",NA,"Colombia","COL","Panama Papers","1_node_start",-74.8175621,10.991882,"street_address","rooftop","cl. 79b #42, las mercedes, barranquilla, atlántico, colombia",10.9933208802915,10.9906229197085,-74.8163086197085,-74.8190065802915
"229",14034041,"CALLE 79 NO 7 A 30 BOGOTA D C COLOMBIA",NA,"Colombia","COL","Panama Papers","1_node_start",-74.051692,4.66128,"street_address","rooftop","cl. 79 #7a-30, bogotá, colombia",4.6625833302915,4.6598853697085,-74.0503839697085,-74.0530819302915
"230",14034042,"CALLE 7 ESQ 6 ENSANCHE ISABELITA URBANIZACIÓN CAROLINA SANTO DOMINGO REPUBLICA DOMINICANA DOMINICAN REPUBLIC",NA,"Dominican Republic","DOM","Panama Papers","1_node_start",-69.8433609,18.4721388,"neighborhood","approximate","ensanche isabelita, santo domingo este, dominican republic",18.4739309,18.4685172,-69.8310114,-69.8507309
"231",14034044,"CALLE 7 NO 39 215 OF 501 MEDELLÍN COLOMBIA",NA,"Colombia","COL","Panama Papers","1_node_start",-75.5588075,6.1906011,"subpremise","rooftop","cl. 7 sur #39-197 of 501, el poblado, medellín, el poblado, medellín, antioquia, colombia",6.1920901302915,6.1893921697085,-75.5574642697085,-75.5601622302915
"232",14034045,"CALLE 7 OESTE 3 80 APT 8B EDIFICIO BARCELONA CALI COLUMBIA SOUTH AMERICA SOUTH AFRICA",NA,"South Africa","ZAF","Panama Papers","1_node_start",-76.5319854,3.4516467,"locality","approximate","cali, valle del cauca, colombia",3.505554,3.2845748,-76.4608249,-76.590503
"233",14034046,"CALLE 7 SUR 42 70 OFICINA 802 MEDELLIN COLOMBIA",NA,"Colombia","COL","Panama Papers","1_node_start",-75.5733826,6.197491,"subpremise","rooftop","edificio forum, cl. 7 sur #42-70 oficina 802, el poblado, medellín, el poblado, medellín, antioquia, colombia",6.1987223802915,6.1960244197085,-75.5720902197085,-75.5747881802915
"234",14034049,"CALLE 7 SUR NO 42/70 OF 2013 MEDELLIN COLOMBIA",NA,"Colombia","COL","Panama Papers","1_node_start",-75.5705293,6.1956413,"route","geometric_center","cl. 7 sur, el poblado, medellín, el poblado, medellín, antioquia, colombia",6.1996309,6.1907551,-75.5586015,-75.5764296
"235",14034050,"CALLE 7 SUR NO 42 70 OF 320 EDIF FORUM MEDELLIN COLOMBIA",NA,"Colombia","COL","Panama Papers","1_node_start",-75.5734951,6.1976008,"establishment","rooftop","cl. 7 sur #42 - 70, el poblado, medellín, el poblado, medellín, antioquia, colombia",6.1988092802915,6.1961113197085,-75.5722137197085,-75.5749116802915
"236",14034051,"CALLE 7 SUR NO 42 70 OF 705 ED FORUM MEDELLIN COLOMBIA",NA,"Colombia","COL","Panama Papers","1_node_start",-75.5733585,6.1975044,"premise","rooftop","cl. 7 sur #42-70, el poblado, medellín, el poblado, medellín, antioquia, colombia",6.1988588302915,6.1961608697085,-75.5720865197085,-75.5747844802915
"237",14034063,"CALLE 8 NO 43 C 55 MEDELLÍN COLOMBIA",NA,"Colombia","COL","Panama Papers","1_node_start",-75.5769981,6.1979335,"premise","rooftop","cl. 8 sur #43b112, el poblado, medellín, el poblado, medellín, antioquia, colombia",6.1991173302915,6.1964193697085,-75.5751794197085,-75.5778773802915
"238",14034064,"CALLE 90 NO 13A 20 OF 605 COLOMBIA",NA,"Colombia","COL","Panama Papers","1_node_start",-74.0519429,4.6739564,"subpremise","rooftop","cl. 90 #13a-20 of.605, bogotá, colombia",4.6752509302915,4.6725529697085,-74.0506223197085,-74.0533202802915
"239",14034066,"CALLE 91 NO 13 45 APTO 401 BOGOTÁ COLOMBIA",NA,"Colombia","COL","Panama Papers","1_node_start",-74.0511643,4.6740367,"subpremise","rooftop","cl. 91 #13-45 apto 401, bogotá, colombia",4.6754830802915,4.6727851197085,-74.0497676197085,-74.0524655802915
"240",14034070,"CALLE 92 NO 925 BOGOTA COLOMBIA",NA,"Colombia","COL","Panama Papers","1_node_start",-74.0457487,4.6724493,"street_address","range_interpolated","cl. 92 #9-25, bogotá, colombia",4.6737982802915,4.6711003197085,-74.0443997197085,-74.0470976802915
"241",14034071,"CALLE 93 A 19 25 APTO 201 BOGOTA COLOMBIA",NA,"Colombia","COL","Panama Papers","1_node_start",-74.054637,4.6794891,"subpremise","rooftop","cl. 93a #19-25 apto 201, bogotá, colombia",4.6808738802915,4.6781759197085,-74.0532806697085,-74.0559786302915
"242",14034080,"CALLE 97 A NO 8 10 OFIC 205 BOGOTA COLOMBIA",NA,"Colombia","COL","Panama Papers","1_node_start",-74.0405694,4.6789087,"premise","rooftop","cl. 97a #8-10, localidad de chapinero, bogotá, colombia",4.6802961302915,4.6775981697085,-74.0392591197085,-74.0419570802915
"243",14034086,"CALLE 9A C BIS CR 26 60 PISO 2 CALI COLOMBIA",NA,"Colombia","COL","Panama Papers","1_node_start",-76.5439235,3.4370064,"subpremise","rooftop","cra. 26 #2-60 piso 2, miraflores, cali, valle del cauca, colombia",3.4383735802915,3.4356756197085,-76.5425666697085,-76.5452646302915
"244",14034088,"CALLE 9 A SUR NO 25 319 INTERIOR 104 MEDELLIN COLOMBIA",NA,"Colombia","COL","Panama Papers","1_node_start",-75.5623198,6.1915044,"subpremise","rooftop","cl. 9a sur #25-180 104, el poblado, medellín, el poblado, medellín, antioquia, colombia",6.1923486802915,6.1896507197085,-75.5608469697085,-75.5635449302915
"245",14034092,"CALLE ABRAHAM VALDELOMAR 232 URB LUREN ICA ICA PERÚ",NA,"Perú","PER","Panama Papers","1_node_start",-75.7240375,-14.0802167,"street_address","range_interpolated","abraham valdelomar 232, ica 11001, peru",-14.0789378697085,-14.0816358302915,-75.7226702697085,-75.7253682302915
"246",14034093,"CALLE AFGANISTÁN EDIFICIO 61 APARTAMENTO 3 QUITO ECUADOR",NA,"Ecuador","ECU","Panama Papers","1_node_start",-78.5444984,-0.2596325,"street_address","range_interpolated","d-3 61, quito 170148, ecuador",-0.258283519708498,-0.260981480291502,-78.5431494197085,-78.5458473802915
"247",14034097,"CALLE AGUARDA BLANCA 151 INT 101 URB TAMBO DE MONTERRICO SANTIAGO DE SURCO LIMA PERÚ",NA,"Perú","PER","Panama Papers","1_node_start",-77.0176641,-12.1188023,"establishment","rooftop","av. sergio bernales 158, surquillo 15048, peru",-12.1174103197085,-12.1201082802915,-77.0163165697085,-77.0190145302915
"248",14034109,"CALLE AMBAR MZ B LT 3 CHORRILLOS LIMA PERÚ",NA,"Perú","PER","Panama Papers","1_node_start",-76.9527956,-12.1925535,"establishment","rooftop","av modelo 364, villa el salvador 15828, peru",-12.1911830697085,-12.1938810302915,-76.9514595697085,-76.9541575302915
"249",14034146,"CALLE AQUILINO DE LA GUARDIA NO 8 EDIFICIO IGRA PANAMÁ REPÚBLICA DE PANAMÁ",NA,"Panamá","PAN","Panama Papers","1_node_start",-79.5267114,8.9819066,"establishment","rooftop","5to piso edificio igra, c. aquilino de la guardia 8, panamá, provincia de panamá, panama",8.9833257802915,8.9806278197085,-79.5252994697085,-79.5279974302915
"250",14034192,"CALLE BATALLON TARMA 414 URB SANTA TERESA SURCO LIMA PERU PERÚ",NA,"Perú","PER","Panama Papers","1_node_start",-76.9793151,-12.1187727,"premise","rooftop","jirón batallón tarma 414, lima 15039, peru",-12.1174243697085,-12.1201223302915,-76.9779945697085,-76.9806925302915
"251",14034223,"CALLE BUEN RETIRO 111 DPTO 102 SAN BORJA LIMA PERÚ",NA,"Perú","PER","Panama Papers","1_node_start",-76.9869478,-12.1088181,"subpremise","rooftop","dpto 102, buen retiro 111, lima 15037, peru",-12.1074572197085,-12.1101551802915,-76.9855996697085,-76.9882976302915
"252",14034230,"CALLE CAMINO DE SANTIAGO NO 27 PRIMERO P 24402 PONFERRADA LEÓN ESPAÑA SPAIN",NA,"Spain","ESP","Panama Papers","1_node_start",-6.6021152,42.5492456,"street_address","rooftop","c. cam. de santiago, 27, 24400 ponferrada, león, spain",42.5506348802915,42.5479369197085,-6.6007309697085,-6.6034289302915
"253",14034231,"CALLE CAMINO REAL 1801 MZ B LOTE 17 PARQUE INDUSTRIAL SAN PEDRITO SURCO LIMA PERÚ",NA,"Perú","PER","Panama Papers","1_node_start",-77.0391492,-12.1074781,"subpremise","rooftop","mz b lote 17, av. camino real 1801, santiago de surco 15063, peru",-12.1061196697085,-12.1088176302915,-77.0379957197085,-77.0406936802915
"254",14034239,"CALLE CASCAJAL 304 SURCO LIMA PERÚ",NA,"Perú","PER","Panama Papers","1_node_start",-76.9732177,-12.1211114,"street_address","range_interpolated","jr. el cascajal 304, lima 15023, peru",-12.1197242197085,-12.1224221802915,-76.9719150697085,-76.9746130302915
"255",14034245,"CALLE CERDENA 11 03500 BENIDORM ALICANTE SPAIN",NA,"Spain","ESP","Panama Papers","1_node_start",-0.0956144,38.5487186,"premise","rooftop","c. de cerdeña, 11, 03503 benidorm, alicante, spain",38.5500177802915,38.5473198197085,-0.094307019708498,-0.097004980291502
"256",14034274,"CALLE CRUZ DEL SUR 415 DPTO 504 INT A SANTIAGO DE SURCO –LIMA PERÚ",NA,"Perú","PER","Panama Papers","1_node_start",-76.9680191,-12.0898624,"subpremise","rooftop","dpto 504 int a, jirón cruz del sur 415, santiago de surco 15023, peru",-12.0885388197085,-12.0912367802915,-76.9666815197085,-76.9693794802915
"257",14034275,"CALLE CRUZ DEL SUR 415 DPTO 504 INTERIOR A SANTIAGO DE SURCO LIMA PERÚ",NA,"Perú","PER","Panama Papers","1_node_start",-76.9680191,-12.0898624,"subpremise","rooftop","dpto 504 interior a, jirón cruz del sur 415, santiago de surco 15023, peru",-12.0885388197085,-12.0912367802915,-76.9666815197085,-76.9693794802915
"258",14034282,"CALLE D1 1 QUINTA 720 URBANIZACION LA LAGUNITA MUNICIPIO EL HATILLO CARACAS VENEZUELA",NA,"Venezuela","VEN","Panama Papers","1_node_start",-66.800438,10.4316653,"route","geometric_center","calle d-1, caracas 1083, miranda, venezuela",10.4340288,10.4292538,-66.7983341,-66.8024285
"259",14034293,"CALLE DEL ESTABLO S/N Y CALLE E QUITO ECUADOR",NA,"Ecuador","ECU","Panama Papers","1_node_start",-78.4678382,-0.1806532,"locality","approximate","quito, ecuador",0.0219727,-0.3951614,-78.2741547,-78.5869217
"260",14034297,"CALLE DEL PEPE Y DE LA LOMA EDF MIRAL ESTE APT B9 SANTA LUCIA ALTA CUMBAYA QUITO ECUADOR",NA,"Ecuador","ECU","Panama Papers","1_node_start",-78.446336,-0.2003233,"establishment","geometric_center","qhx3+vff, quito 170157, ecuador",-0.198976269708498,-0.201674230291502,-78.4448807697085,-78.4475787302915
"261",14034302,"CALLE DE MODRIAN S2116 Y MIGUEL ANGEL EDIFICIO MIRAVALLE FRENTE A GASOLINERA QUITO ECUADOR",NA,"Ecuador","ECU","Panama Papers","1_node_start",-78.4801943,-0.2063442,"route","geometric_center","miravalle, 170109 quito, ecuador",-0.204811669708498,-0.207509630291502,-78.4791289197085,-78.4818268802915
"262",14034323,"CALLE EL HARAS 121 LA MOLINA LIMA PERU PERÚ",NA,"Perú","PER","Panama Papers","1_node_start",-76.9389214,-12.0773051,"street_address","rooftop","el haras 121, la molina 15026, peru",-12.0759670197085,-12.0786649802915,-76.9375622197085,-76.9402601802915
"263",14034324,"CALLE EL HARAS 121 URB EL HARAS LA MOINA LIMA PERÚ",NA,"Perú","PER","Panama Papers","1_node_start",-76.9389214,-12.0773051,"street_address","rooftop","el haras 121, la molina 15026, peru",-12.0759670197085,-12.0786649802915,-76.9375622197085,-76.9402601802915
"264",14034333,"CALLE EL PEÑON MZ B 2 LA PLANICIE LA MOLINA LIMA PERÚ",NA,"Perú","PER","Panama Papers","1_node_start",-76.8800718,-12.069638,"route","geometric_center","c. el peñon, 15026, peru",-12.0673672,-12.0715384,-76.8767803,-76.8836261
"265",14034339,"CALLE EL VELERO 432 URBANIZACIÓN LAS LAGUNAS LA MOLINA LIMA PERÚ",NA,"Perú","PER","Panama Papers","1_node_start",-76.9188175,-12.081145,"premise","rooftop","el velero 432, lima 15026, peru",-12.0798394697085,-12.0825374302915,-76.9174882197085,-76.9201861802915
"266",14034381,"CALLE GRIMALDO DEL SOLAR 318 OF 501 MIRAFLORES LIMA PERÚ",NA,"Perú","PER","Panama Papers","1_node_start",-77.0260419,-12.1252856,"subpremise","rooftop","of 501, c. grimaldo del solar 318, miraflores 15074, peru",-12.1239383697085,-12.1266363302915,-77.0246476197085,-77.0273455802915
"267",14034403,"CALLE JOAQUÍN PINTO 356 Y JUAN LEÓN MERA QUITO ECUADOR",NA,"Ecuador","ECU","Panama Papers","1_node_start",-78.4913975,-0.2032733,"street_address","range_interpolated","joaquín pinto 356, quito 170143, ecuador",-0.201924319708498,-0.204622280291502,-78.4900485197085,-78.4927464802915
"268",14034408,"CALLE JOSÉ BALTA 122 URB INGENIERÍA SAN MARTÍN DE PORRES LIMA LIMA PERÚ",NA,"Perú","PER","Panama Papers","1_node_start",-77.0553445,-12.0303837,"premise","rooftop","jose balta 122, san martín de porres 15102, peru",-12.0290686697085,-12.0317666302915,-77.0540538197085,-77.0567517802915
"269",14034409,"CALLE JOSÉ DE LA TORRE UGARTE 397 CHICLAYO LAMBAYEQUE PERÚ",NA,"Perú","PER","Panama Papers","1_node_start",-79.8491989,-6.7675741,"street_address","rooftop","josé de la torre ugarte 397, chiclayo 14009, peru",-6.7662283197085,-6.7689262802915,-79.8478164697085,-79.8505144302915
"270",14034410,"CALLE JOSÉ DEL LLANO ZAPATA 331 OFICINA 306 MIRAFLORES LIMA PERÚ",NA,"Perú","PER","Panama Papers","1_node_start",-77.0392131,-12.110025,"subpremise","rooftop","oficina 306, josé del llano zapata 331, lima 15073, peru",-12.1086541697085,-12.1113521302915,-77.0378847697085,-77.0405827302915
"271",14034439,"CALLE LA CASCADA 255 E 6B CASA B URB RINCONADA ALTA 1RA ETAPA LA MOLINA LIMA PERÚ",NA,"Perú","PER","Panama Papers","1_node_start",-76.9671401,-12.1227786,"route","geometric_center","c. la cascada, santiago de surco 15023, peru",-12.1214564697085,-12.1241544302915,-76.9657924697085,-76.9684904302915
"272",14034442,"CALLE LA CIMA 124 – URB CASUARINAS –SANTIAGO DE SURCO – LIMA –PERÚ",NA,"Perú","PER","Panama Papers","1_node_start",-76.9656648,-12.1197079,"street_address","rooftop","calle la cima 124, santiago de surco 15023, peru",-12.1183737197085,-12.1210716802915,-76.9642641697085,-76.9669621302915
"273",14034443,"CALLE LA COLINA EDIF CONJUNTO RESIDENCIAL LAS PEREZAS APT PH A MUNICIPIO EL HATILLO ESTADO MIRANDA VENEZUELA",NA,"Venezuela","VEN","Panama Papers","1_node_start",-66.7962869,10.3941754,"administrative_area_level_2","approximate","el hatillo, 1083, miranda, venezuela",10.459262,10.3555379,-66.6953599,-66.8514969
"274",14034444,"CALLE LA COLINA EDIF CONJUNTO RESIDENCIAL LAS PEREZAS APT PH A MUNICIPIO EL HATILLO ESTADO MIRANDA VENZUELA VENEZUELA",NA,"Venezuela","VEN","Panama Papers","1_node_start",-66.7962869,10.3941754,"administrative_area_level_2","approximate","el hatillo, 1083, miranda, venezuela",10.459262,10.3555379,-66.6953599,-66.8514969
"275",14034464,"CALLE LAS CANTUTAS 245 DPTO 401 CASUARINAS SUR SURCO LIMA PERÚ",NA,"Perú","PER","Panama Papers","1_node_start",-76.970607,-12.1260625,"subpremise","rooftop","dpto 401, las cantutas 245, lima 15023, peru",-12.1246788197085,-12.1273767802915,-76.9692863697085,-76.9719843302915
"276",14034470,"CALLE LAS GLADIOLAS EL GOLF CIUDAD DE PANAMA REPUBLIC OF PANAMA PANAMÁ",NA,"Panamá","PAN","Panama Papers","1_node_start",-79.5000113,9.0007466,"route","geometric_center","calle las gladiolas, panamá, provincia de panamá, panama",9.0020520302915,8.9993540697085,-79.4986537697085,-79.5013517302915
"277",14034472,"CALLE LAS MORAS MZ A LOTE 8 URB LA MOLINA VIEJA LA MOLINA LIMA PERÚ",NA,"Perú","PER","Panama Papers","1_node_start",-76.9620947,-12.0979613,"route","geometric_center","mz a, la molina 15023, peru",-12.0965918197085,-12.0992897802915,-76.9607937197085,-76.9634916802915
"278",14034489,"CALLE LOS APAMATES RES MEMBERS PLAZA P 7 APT 7 LA FLORIDA CARACAS VENEZUELA",NA,"Venezuela","VEN","Panama Papers","1_node_start",-66.879278,10.5017867,"establishment","geometric_center","g42c+p79, caracas 1050, capital district, venezuela",10.5031009802915,10.5004030197085,-66.8779562697085,-66.8806542302915
"279",14034494,"CALLE LOS CASTAÑOS NO 560 DPTO 1001 URB COUNTRY CLUB SAN ISIDRO LIMA PERU PERÚ",NA,"Perú","PER","Panama Papers","1_node_start",-77.0503523,-12.0983882,"subpremise","rooftop","dpto 1001, c. los castaños 560, lima 15076, peru",-12.0970549197085,-12.0997528802915,-77.0489479697085,-77.0516459302915
"280",14034559,"CALLE MCAL BLAS CERDEÑA 159 SAN ISIDRO LIMA PERÚ",NA,"Perú","PER","Panama Papers","1_node_start",-77.043156,-12.1058765,"premise","rooftop","ca. mariscal blas cerdeña 159, lima 15073, peru",-12.1044976697085,-12.1071956302915,-77.0419250697085,-77.0446230302915
"281",14034579,"CALLE MONTERRICO CHICO 485 DPTO 101 SURCO LIMA PERÚ",NA,"Perú","PER","Panama Papers","1_node_start",-76.9815202,-12.1216322,"subpremise","rooftop","dpto 101, av. monterrico chico 485, santiago de surco 15039, peru",-12.1202136697085,-12.1229116302915,-76.9800990197085,-76.9827969802915
"282",14034583,"CALLE MONTE UMBROSO 148 DPT 401 URB BELLA LUZ SURCO LIMA PERÚ",NA,"Perú","PER","Panama Papers","1_node_start",-76.9803614,-12.1124712,"premise","rooftop","al. monte umbroso 148, lima 15039, peru",-12.1112169197085,-12.1139148802915,-76.9789929197085,-76.9816908802915
"283",14034584,"CALLE MONTE UMBROSO 148 DPTO 401 URB BELLA LUZ SURCO LIMA PERÚ",NA,"Perú","PER","Panama Papers","1_node_start",-76.9803614,-12.1124712,"subpremise","rooftop","dpto 401, al. monte umbroso 148, lima 15039, peru",-12.1112169197085,-12.1139148802915,-76.9789929197085,-76.9816908802915
"284",14034585,"CALLE MONTSERRAT ROIG 28 BAJO 08339 VILASSAR DE DALT BARCELONA SPAIN",NA,"Spain","ESP","Panama Papers","1_node_start",2.3607915,41.5084307,"premise","rooftop","carrer montserrat roig, 28, 08339 vilassar de dalt, barcelona, spain",41.5098216302915,41.5071236697085,2.3621263302915,2.3594283697085
"285",14034626,"CALLE PESQUERA MZ I SN URB HUERTA GRANDE LTE 21 ETAPA 2 TRUJILLO TRUJILLO LA LIBERTAD PERÚ",NA,"Perú","PER","Panama Papers","1_node_start",-79.0264528,-8.1029467,"political","approximate","i, trujillo 13001, peru",-8.1015209697085,-8.1042189302915,-79.0251111197085,-79.0278090802915
"286",14034631,"CALLE PONTEVEDRA 381 URB LA ESTANCIA –LA MOLINA LIMA PERÚ",NA,"Perú","PER","Panama Papers","1_node_start",-76.9394594,-12.0857317,"political","approximate","urb la estancia oeste, la molina 15026, peru",-12.0842553697085,-12.0869533302915,-76.9380808,-76.9409769
"287",14034634,"CALLE PRIMERA NO 731 Y GUAYACANES GUAYAQUIL ECUADOR",NA,"Ecuador","ECU","Panama Papers","1_node_start",-79.9108498,-2.1660414,"street_address","range_interpolated","alfredo pareja diezcanseco 731, guayaquil 090511, ecuador",-2.1646689197085,-2.1673668802915,-79.9094345697085,-79.9121325302915
"288",14034636,"CALLE PROF EMILIO APARICIO ESQ CALLE 8 NO 60 ENSANCHE JULIETA SANTO DOMINGO D N REPÚBLICA DOMINICANA DOMINICAN REPUBLIC",NA,"Dominican Republic","DOM","Panama Papers","1_node_start",-69.9485189,18.4693755,"street_address","range_interpolated","c. 8 60, santo domingo, dominican republic",18.4707244802915,18.4680265197085,-69.9471699197085,-69.9498678802915
"289",14034654,"CALLE RICARDO ARIAS CAMPO ALEGRE EDIFICIO PROCONSA II OFICINA 2 A PANAMÁ REPÚBLICA DE PANAMÁ",NA,"Panamá","PAN","Panama Papers","1_node_start",-79.5223417,8.9824245,"establishment","rooftop","proconsa 1, panamá, provincia de panamá, panama",8.9837552802915,8.9810573197085,-79.5210879197085,-79.5237858802915
"290",14034661,"CALLE RIPOLLES 34 PINAR DE ROSANES LA AMETLLA DEL VALLES 08480 BARCELONA ESPAÑA SPAIN",NA,"Spain","ESP","Panama Papers","1_node_start",2.2723683,41.662033,"premise","rooftop","carrer ripollès, 34, 08480 l'ametlla del vallès, barcelona, spain",41.6633239802915,41.6606260197085,2.2736973802915,2.2709994197085
"291",14034662,"CALLE RIVADAVIA 323 PRIMER PISO A SAN ISIDRO BUENOS AIRES ARGENTINA",NA,"Argentina","ARG","Panama Papers","1_node_start",-58.5584903,-34.6398999,"subpremise","range_interpolated","av. rivadavia 323 piso a, ramos mejía, provincia de buenos aires, argentina",-34.6385509197085,-34.6412488802915,-58.5571413197085,-58.5598392802915
"292",14034670,"CALLE RUMANIA 213 Y POLONIA QUITO ECUADOR",NA,"Ecuador","ECU","Panama Papers","1_node_start",-78.554685,-0.3085156,"street_address","range_interpolated","y 213, quito 170146, ecuador",-0.307166619708498,-0.309864580291502,-78.5533360197085,-78.5560339802915
"293",14034685,"CALLE SAN JOSÉ DE LOS OLLEROS 108 DPTO 302 URB LAS LOMAS DE LA MOLINA LIMA PERÚ",NA,"Perú","PER","Panama Papers","1_node_start",-76.9367471,-12.101743,"subpremise","rooftop","dpto 302, san jose de los olleros 108, la molina 15024, peru",-12.1003961197085,-12.1030940802915,-76.9353514197085,-76.9380493802915
"294",14034689,"CALLE SANTA ELENA NORTE 155 DEPTO 501 SANTIAGO DE SURCO LIMA PERÚ",NA,"Perú","PER","Panama Papers","1_node_start",-76.9683791,-12.1054864,"subpremise","rooftop","depto 501, calle sta elena nte 155, santiago de surco 15023, peru",-12.1041557197085,-12.1068536802915,-76.9669524697085,-76.9696504302915
"295",14034705,"CALLE SELVA ALEGRE OE5 179 E ISLA QUITO PICHINCHA ECUADOR",NA,"Ecuador","ECU","Panama Papers","1_node_start",-78.5024353,-0.1902823,"route","geometric_center","selva alegre, 170129 quito, ecuador",-0.1855129,-0.1946898,-78.4943735,-78.5107083
"296",14034711,"CALLES TOMÁS MARTÍNEZ 310 ENTRE CÓRDOVA Y ROCAFUERTE CITY OF GUAYAQUIL ECUADOR",NA,"Ecuador","ECU","Panama Papers","1_node_start",-79.8795314,-2.1866906,"street_address","rooftop","c. 7 n-e - tomás martínez avalos 310, guayaquil 090313, ecuador",-2.1853814697085,-2.1880794302915,-79.8781992197085,-79.8808971802915
"297",14034715,"CALLE SUMARÁN 386 URB SANTA CATALINA LA VICTORIA LIMA PERÚ",NA,"Perú","PER","Panama Papers","1_node_start",-77.0196225,-12.0841123,"street_address","range_interpolated","sumaran 386, lima 15034, peru",-12.0827791697085,-12.0854771302915,-77.0181917197085,-77.0208896802915
"298",14034753,"CALLE WILLIAM GUZMAN 161 PISO 2 MIRAFLORES LIMA PERÚ",NA,"Perú","PER","Panama Papers","1_node_start",-77.0046931,-12.1270985,"subpremise","rooftop","piso 2, capitan william guzman e 161, lima 15048, peru",-12.1257569697085,-12.1284549302915,-77.0033018697085,-77.0059998302915
"299",14034767,"CALZADA LA PAZ 6 30 ZONA 5 GUATEMALA CIUDAD GUATEMALA",NA,"Guatemala","GTM","Panama Papers","1_node_start",-90.4880284,14.6406476,"subpremise","rooftop","30, calz. la paz 6-30, cdad. de guatemala 01005, guatemala",14.6419750802915,14.6392771197085,-90.4865181197085,-90.4892160802915
"300",14034768,"CALZADA LA PAZ 6 30 ZONA 5 GUATEMALA GUATEMALA",NA,"Guatemala","GTM","Panama Papers","1_node_start",-90.4880284,14.6406476,"subpremise","rooftop","30, calz. la paz 6-30, cdad. de guatemala 01005, guatemala",14.6419750802915,14.6392771197085,-90.4865181197085,-90.4892160802915
"301",14034788,"CAMINO EL QUELTEHUE 4771 LO BARNECHEA SANTIAGO CHILE 7700573",NA,"Chile","CHL","Panama Papers","1_node_start",-70.5438018,-33.3243918,"premise","rooftop","cam. el queltehue 4771, lo barnechea, región metropolitana, chile",-33.3230053697085,-33.3257033302915,-70.5424976697085,-70.5451956302915
"302",14034803,"CAMPANA 3630 BUENOS AIRES ARGENTINA",NA,"Argentina","ARG","Panama Papers","1_node_start",-58.5006264,-34.597428,"premise","rooftop","campana 3630, c1419agd buenos aires, argentina",-34.5960570197085,-34.5987549802915,-58.4992082697085,-58.5019062302915
"303",14034918,"CARACAS VENEZUELA",NA,"Venezuela","VEN","Panama Papers","1_node_start",-66.9036063,10.4805937,"locality","approximate","caracas, capital district, venezuela",10.5401335,10.39665,-66.7179533,-67.0627784
"304",14034954,"CARRE 60 79B 04 BOGOTA COLOMBIA",NA,"Colombia","COL","Panama Papers","1_node_start",-74.0757549,4.6781199,"street_address","rooftop","cra. 60 #79b-4, barrios unidos, bogotá, cundinamarca, colombia",4.6794758302915,4.6767778697085,-74.0743912697085,-74.0770892302915
"305",14034961,"CARRERA 11 17 19 ZIPAQUIRA COLOMBIA",NA,"Colombia","COL","Panama Papers","1_node_start",-73.9981995,5.0320742,"street_address","range_interpolated","cra. 11 #17-19, zipaquirá, cundinamarca, colombia",5.0334165302915,5.0307185697085,-73.9968065697085,-73.9995045302915
"306",14034962,"CARRERA 11 7 19 ZIPAQUIRA COLOMBIA",NA,"Colombia","COL","Panama Papers","1_node_start",-74.0000007,5.0242139,"street_address","rooftop","cra. 11 #7-19, zipaquirá, cundinamarca, colombia",5.0255328802915,5.0228349197085,-73.9986043697085,-74.0013023302915
"307",14034966,"CARRERA 11 C NO 127 89 APARTAMENTO 801 BOGOTA COLOMBIA",NA,"Colombia","COL","Panama Papers","1_node_start",-74.0369629,4.7057578,"subpremise","range_interpolated","cra. 11c #127-89 apartamento 801, bogotá, colombia",4.7071286802915,4.7044307197085,-74.0354795197085,-74.0381774802915
"308",14034968,"CARRERA 11 N° 94 47 OFFICE 702 BOGOTÁ COLOMBIA",NA,"Colombia","COL","Panama Papers","1_node_start",-74.046192,4.6778505,"subpremise","rooftop","cra. 11 #94-47 702, localidad de chapinero, bogotá, colombia",4.6791697302915,4.6764717697085,-74.0447483197085,-74.0474462802915
"309",14034969,"CARRERA 11 N° 94 47 OFICINA 702 BOGOTÁ – COLOMBIA",NA,"Colombia","COL","Panama Papers","1_node_start",-74.046192,4.6778505,"subpremise","rooftop","cra. 11 #94-47 oficina 702, localidad de chapinero, bogotá, colombia",4.6791697302915,4.6764717697085,-74.0447483197085,-74.0474462802915
"310",14034979,"CARRERA 13 NO 78 95 BOGOTA COLOMBIA",NA,"Colombia","COL","Panama Papers","1_node_start",-74.056212,4.6649328,"street_address","rooftop","cra. 13 #78-95, bogotá, colombia",4.6662394302915,4.6635414697085,-74.0547972197085,-74.0574951802915
"311",14034983,"CARRERA 15 127 B 33 APTO 1205 BOGOTÁ COLOMBIA",NA,"Colombia","COL","Panama Papers","1_node_start",-74.0425271,4.7077597,"subpremise","range_interpolated","cra. 15 #127b-33 apto 1205, bogotá, colombia",4.7091086802915,4.7064107197085,-74.0411781197085,-74.0438760802915
"312",14034984,"CARRERA 15A NO 122 96 BOGOTÁ COLOMBIA",NA,"Colombia","COL","Panama Papers","1_node_start",-74.0436927,4.7017726,"street_address","range_interpolated","cra. 15a #122-96, bogotá, colombia",4.7031215802915,4.7004236197085,-74.0423437197085,-74.0450416802915
"313",14034985,"CARRERA 15 NO 93A 84 OFC 808 BOGOTÁ COLOMBIA",NA,"Colombia","COL","Panama Papers","1_node_start",-74.0506495,4.6786493,"premise","rooftop","cra. 15 #93a-84, localidad de chapinero, bogotá, colombia",4.6800110802915,4.6773131197085,-74.0493554197085,-74.0520533802915
"314",14034988,"CARRERA 17 12 SUR 260 APT 702 MEDELLIN COLOMBIA",NA,"Colombia","COL","Panama Papers","1_node_start",-75.5514087,6.19695,"subpremise","range_interpolated","cra. 17 #12 702, medellín, antioquia, colombia",6.1982989802915,6.1956010197085,-75.5500597197085,-75.5527576802915
"315",14034993,"CARRERA 18 NO 12 SUR 25 INTERIOR 101 MEDELLIN ANTIOQUIA COLOMBIA",NA,"Colombia","COL","Panama Papers","1_node_start",-75.5586341,6.1866959,"route","geometric_center","cl. 12 sur, el poblado, medellín, antioquia, colombia",6.1880041,6.1848015,-75.5531434,-75.5642412
"316",14034998,"CARRERA 1 ESTE NO 70 – 42 APTO 301 DE LA CIUDAD DE BOGOTÁ COLOMBIA",NA,"Colombia","COL","Panama Papers","1_node_start",-74.0511145,4.6499737,"subpremise","rooftop","cra 1 este #70-42 apto 301, bogotá, colombia",4.6513347302915,4.6486367697085,-74.0497629697085,-74.0524609302915
"317",14035002,"CARRERA 20 NO 11 87 EDIFICIO SAN MIGUEL APARTAMENTO 803 PEREIRA DEPARTAMENTO DE RISARALDA COLOMBIA",NA,"Colombia","COL","Panama Papers","1_node_start",-75.689103,4.8028447,"establishment","rooftop","cra. 20 #11-87, pereira, risaralda, colombia",4.8041521302915,4.8014541697085,-75.6877708697085,-75.6904688302915
"318",14035005,"CARRERA 22 16 AA SUR 150 CASA 102 COLOMBIA",NA,"Colombia","COL","Panama Papers","1_node_start",-74.297333,4.570868,"country","approximate","colombia",16.0709376,-4.2271099,-66.8463122,-81.8317
"319",14035008,"CARRERA 23 A NO 29 70 BARRIO MANGA CARTAGENA COLOMBIA",NA,"Colombia","COL","Panama Papers","1_node_start",-75.5325669,10.4121621,"subpremise","rooftop","cra. 23a #29 70, manga, cartagena de indias, provincia de cartagena, bolívar, colombia",10.4135893302915,10.4108913697085,-75.5312603697085,-75.5339583302915
"320",14035010,"CARRERA 25 11 528 MEDELLÍN COLOMBIA",NA,"Colombia","COL","Panama Papers","1_node_start",-75.5571896,6.1974442,"street_address","range_interpolated","cra. 25 #1-1, el poblado, medellín, el poblado, medellín, antioquia, colombia",6.1987931802915,6.1960952197085,-75.5558406197085,-75.5585385802915
"321",14035012,"CARRERA 27 C 71 37 BOGOTA COLOMBIA",NA,"Colombia","COL","Panama Papers","1_node_start",-74.0709389,4.6634979,"street_address","range_interpolated","cra. 27c #71-37, bogotá, colombia",4.6648017302915,4.6621037697085,-74.0695256197085,-74.0722235802915
"322",14035014,"CARRERA 29 C CALLE 18A SUR 120 INTERIOR 2202 MEDELLÍN ANTIOQUIA COLOMBIA",NA,"Colombia","COL","Panama Papers","1_node_start",-75.565595,6.1823881,"route","geometric_center","cl. 18a sur, el poblado, medellín, el poblado, medellín, antioquia, colombia",6.184174,6.1805091,-75.5611485,-75.5771573
"323",14035017,"CARRERA 3 74A 41 APTO 601 BOGOTA COLOMBIA",NA,"Colombia","COL","Panama Papers","1_node_start",-74.0953458,4.5499511,"subpremise","rooftop","cra. 3 este #41-74 apto 601, bogotá, colombia",4.5512928802915,4.5485949197085,-74.0939740197085,-74.0966719802915
"324",14035018,"CARRERA 30 147 33 INTERIOR 7 APT 302 BOGOTA COLOMBIA",NA,"Colombia","COL","Panama Papers","1_node_start",-74.1062302,4.598845,"subpremise","range_interpolated","ave cra 30 #1-47 interior 7 apto 302, los mártires, bogotá, colombia",4.6001939802915,4.5974960197085,-74.1048812197085,-74.1075791802915
"325",14035021,"CARRERA 35 B NO 16 81 COLOMBIA",NA,"Colombia","COL","Panama Papers","1_node_start",-76.5036781,3.5008112,"street_address","rooftop","cra. 35b #16-81, acopi, yumbo, arroyo hondo, yumbo, valle del cauca, colombia",3.5021012302915,3.4994032697085,-76.5023336697085,-76.5050316302915
"326",14035022,"CARRERA 35 B NO 16 81 MEDELLÍN ANTIOQUÍA COLOMBIA",NA,"Colombia","COL","Panama Papers","1_node_start",-75.5626743,6.235314,"route","geometric_center","cra. 35b, medellín, buenos aires, medellín, antioquia, colombia",6.2362448,6.2334494,-75.5612549197085,-75.5639528802915
"327",14035025,"CARRERA 4 80A 16 COLOMBIA",NA,"Colombia","COL","Panama Papers","1_node_start",-74.297333,4.570868,"country","approximate","colombia",16.0709376,-4.2271099,-66.8463122,-81.8317
"328",14035029,"CARRERA 42 79 19 ITAGUI ANTIOQUIA COLOMBIA",NA,"Colombia","COL","Panama Papers","1_node_start",-75.5889109,6.184924,"street_address","rooftop","cra 42 #7919, itagüi, medellín, antioquia, colombia",6.1861878302915,6.1834898697085,-75.5875072197085,-75.5902051802915
"329",14035033,"CARRERA 43A 9SUR 91 OFICINA 1104 COLOMBIA",NA,"Colombia","COL","Panama Papers","1_node_start",-75.5758502,6.1956327,"subpremise","rooftop","cra. 43a #9 sur-51 oficina 1104, el poblado, medellín, el poblado, medellín, antioquia, colombia",6.1968945802915,6.1941966197085,-75.5744201697085,-75.5771181302915
"330",14035034,"CARRERA 43A 9SUR 91 TORRE NORTE OFICINA 1104 MEDELLIN ANTIOQUIA COLOMBIA",NA,"Colombia","COL","Panama Papers","1_node_start",-75.5751988,6.1961108,"subpremise","rooftop","business center las villas, cra. 43a # 9 sur - 91, el poblado, medellín, el poblado, medellín, antioquia, colombia",6.1974783802915,6.1947804197085,-75.5738200697085,-75.5765180302915
"331",14035036,"CARRERA 43 AIA SUR 69 LOCAL 101 MEDELLIN COLUMBIA COLOMBIA",NA,"Colombia","COL","Panama Papers","1_node_start",-75.5702006,6.2357428,"route","geometric_center","cra. 43a, la candelaria, medellín, la candelaria, medellín, antioquia, colombia",6.2401151,6.2310502,-75.5687136697085,-75.5714116302915
"332",14035039,"CARRERA 44 23 SUR 65 APTO 801 MEDELLIN COLOMBIA",NA,"Colombia","COL","Panama Papers","1_node_start",-75.5811658,6.1826234,"subpremise","rooftop","cra. 44 #23 sur-65 apto 801, zona 2, envigado, antioquia, colombia",6.1839511802915,6.1812532197085,-75.5797807197085,-75.5824786802915
"333",14035040,"CARRERA 44 NR 15 SUR 58 MEDELLIN COLOMBIA",NA,"Colombia","COL","Panama Papers","1_node_start",-75.5771345,6.1916897,"premise","rooftop","cra. 44 #15 sur 58, el poblado, medellín, el poblado, medellín, antioquia, colombia",6.1929759802915,6.1902780197085,-75.5758632197085,-75.5785611802915
"334",14035041,"CARRERA 45 14 44 MEDELLÍN COLOMBIA",NA,"Colombia","COL","Panama Papers","1_node_start",-75.5733934,6.2156311,"subpremise","rooftop","cra. 45 #14-44, el poblado, medellín, el poblado, medellín, antioquia, colombia",6.2169861302915,6.2142881697085,-75.5721069197085,-75.5748048802915
"335",14035042,"CARRERA 47 A 91 – 32 BOGOTÁ COLOMBIA",NA,"Colombia","COL","Panama Papers","1_node_start",-74.0609935,4.6793443,"premise","rooftop","cra. 47a #91-32, bogotá, colombia",4.6806897302915,4.6779917697085,-74.0596351697085,-74.0623331302915
"336",14035044,"CARRERA 4B 90 02 APT 301 BOGOTA COLOMBIA",NA,"Colombia","COL","Panama Papers","1_node_start",-74.0423713,4.6695871,"subpremise","range_interpolated","cra. 4b #90-2 301, bogotá, colombia",4.6709360802915,4.6682381197085,-74.0410223197085,-74.0437202802915
"337",14035045,"CARRERA 4B NO 90 02 APTO 601 BOGOTA COLOMBIA",NA,"Colombia","COL","Panama Papers","1_node_start",-74.0423713,4.6695871,"subpremise","range_interpolated","cra. 4b #90-2 apto 601, bogotá, colombia",4.6709360802915,4.6682381197085,-74.0410223197085,-74.0437202802915
"338",14035058,"CARRERA 5 NO 11 48 LA TEBAIDA (QUIDIO) COLOMBIA",NA,"Colombia","COL","Panama Papers","1_node_start",-75.79153,4.453588,"locality","approximate","la tebaida, quindio, colombia",4.459791,4.4473861,-75.7788431,-75.804218
"339",14035059,"CARRERA 5 NO 131 74 APT 302 B EDIFICIO HILLS BOSQUE MEDINA BOGOTÁ COLOMBIA",NA,"Colombia","COL","Panama Papers","1_node_start",-74.0248959,4.7101192,"establishment","rooftop","cra. 5 #131-74, bogotá, colombia",4.7114752802915,4.7087773197085,-74.0236097697085,-74.0263077302915
"340",14035063,"CARRERA 69 NO 98A 66 BOGOTÁ D C COLOMBIA",NA,"Colombia","COL","Panama Papers","1_node_start",-74.0744681,4.6914277,"street_address","rooftop","cra. 69 #98a-66, suba, bogotá, colombia",4.6927990802915,4.6901011197085,-74.0731356697085,-74.0758336302915
